[{"id":"AAA","name":"Anaa Airport","city":"Anaa","countryIso2":"PF","lat":-17.3526,"lon":-145.51},{"id":"AAC","name":"El Arish International Airport","city":"El Arish","countryIso2":"EG","lat":31.0733,"lon":33.8358},{"id":"AAE","name":"Annaba Airport","city":"Annaba","countryIso2":"DZ","lat":36.8222,"lon":7.8092},{"id":"AAF","name":"Apalachicola Regional Airport","city":"Apalachicola","countryIso2":"US","lat":29.7275,"lon":-85.0275},{"id":"AAH","name":"Aachen-Merzbrück Airport","city":"Aachen","countryIso2":"DE","lat":50.8231,"lon":6.1864},{"id":"AAK","name":"Buariki Airport","city":"Buariki","countryIso2":"KI","lat":0.1853,"lon":173.637},{"id":"AAL","name":"Aalborg Airport","city":"Aalborg","countryIso2":"DK","lat":57.0928,"lon":9.8492},{"id":"AAM","name":"Malamala Airport","city":"Malamala","countryIso2":"ZA","lat":-24.8181,"lon":31.5446},{"id":"AAN","name":"Al Ain International Airport","city":"Al Ain","countryIso2":"AE","lat":24.2617,"lon":55.6092},{"id":"AAO","name":"Anaco Airport","city":"Anaco","countryIso2":"VE","lat":9.4302,"lon":-64.4707},{"id":"AAP","name":"Andrau Airpark","city":"Houston","countryIso2":"US","lat":29.7225,"lon":-95.5883},{"id":"AAQ","name":"Anapa Vityazevo Airport","city":"Anapa","countryIso2":"RU","lat":45.0021,"lon":37.3473},{"id":"AAR","name":"Aarhus Airport","city":"Aarhus","countryIso2":"DK","lat":56.3,"lon":10.619},{"id":"AAV","name":"Allah Valley Airport","city":"Surallah","countryIso2":"PH","lat":6.3668,"lon":124.751},{"id":"AAX","name":"Romeu Zema Airport","city":"Araxa","countryIso2":"BR","lat":-19.5632,"lon":-46.9604},{"id":"AAY","name":"Al Ghaidah International Airport","city":"Al Ghaidah Intl","countryIso2":"YE","lat":16.1917,"lon":52.175},{"id":"AAZ","name":"Quezaltenango Airport","city":"Quezaltenango","countryIso2":"GT","lat":14.8656,"lon":-91.502},{"id":"ABA","name":"Abakan Airport","city":"Abakan","countryIso2":"RU","lat":53.74,"lon":91.385},{"id":"ABD","name":"Abadan Airport","city":"Abadan","countryIso2":"IR","lat":30.3711,"lon":48.2283},{"id":"ABE","name":"Lehigh Valley International Airport","city":"Allentown","countryIso2":"US","lat":40.6521,"lon":-75.4408},{"id":"ABF","name":"Abaiang Airport","city":"Abaiang Atoll","countryIso2":"KI","lat":1.7986,"lon":173.041},{"id":"ABH","name":"Alpha Airport","city":"Alpha","countryIso2":"AU","lat":-23.6461,"lon":146.584},{"id":"ABI","name":"Abilene Regional Airport","city":"Abilene","countryIso2":"US","lat":32.4113,"lon":-99.6819},{"id":"ABJ","name":"Port Bouet Airport","city":"Abidjan","countryIso2":"CI","lat":5.2614,"lon":-3.9263},{"id":"ABK","name":"Kabri Dehar Airport","city":"Kabri Dehar","countryIso2":"ET","lat":6.734,"lon":44.253},{"id":"ABL","name":"Ambler Airport","city":"Ambler","countryIso2":"US","lat":67.1063,"lon":-157.857},{"id":"ABM","name":"Northern Peninsula Airport","city":"Amberley","countryIso2":"AU","lat":-10.9508,"lon":142.459},{"id":"ABN","name":"Albina Airport","city":"Albina","countryIso2":"SR","lat":5.5127,"lon":-54.0501},{"id":"ABQ","name":"Albuquerque International Sunport Airport","city":"Albuquerque","countryIso2":"US","lat":35.0402,"lon":-106.609},{"id":"ABR","name":"Aberdeen Regional Airport","city":"Aberdeen","countryIso2":"US","lat":45.4491,"lon":-98.4218},{"id":"ABS","name":"Abu Simbel Airport","city":"Abu Simbel","countryIso2":"EG","lat":22.376,"lon":31.6117},{"id":"ABT","name":"Al Baha Airport","city":"El-baha","countryIso2":"SA","lat":20.2961,"lon":41.6343},{"id":"ABV","name":"Nnamdi Azikiwe International Airport","city":"Abuja","countryIso2":"NG","lat":9.0068,"lon":7.2632},{"id":"ABX","name":"Albury Airport","city":"Albury","countryIso2":"AU","lat":-36.0678,"lon":146.958},{"id":"ABY","name":"Southwest Georgia Regional Airport","city":"Albany","countryIso2":"US","lat":31.5355,"lon":-84.1945},{"id":"ABZ","name":"Aberdeen Dyce Airport","city":"Aberdeen","countryIso2":"GB","lat":57.2019,"lon":-2.1978},{"id":"ACA","name":"General Juan N Alvarez International Airport","city":"Acapulco","countryIso2":"MX","lat":16.7571,"lon":-99.754},{"id":"ACC","name":"Kotoka International Airport","city":"Accra","countryIso2":"GH","lat":5.6052,"lon":-0.1668},{"id":"ACD","name":"Alcides Fernández Airport","city":"Acandi","countryIso2":"CO","lat":8.5167,"lon":-77.3},{"id":"ACE","name":"Lanzarote Airport","city":"Arrecife","countryIso2":"ES","lat":28.9455,"lon":-13.6052},{"id":"ACH","name":"St Gallen Altenrhein Airport","city":"Altenrhein","countryIso2":"CH","lat":47.485,"lon":9.5608},{"id":"ACI","name":"Alderney Airport","city":"Alderney","countryIso2":"GG","lat":49.7061,"lon":-2.2147},{"id":"ACJ","name":"Anuradhapura Air Force Base","city":"Anuradhapura","countryIso2":"LK","lat":8.3015,"lon":80.4279},{"id":"ACK","name":"Nantucket Memorial Airport","city":"Nantucket","countryIso2":"US","lat":41.2531,"lon":-70.0602},{"id":"ACP","name":"Sahand Airport","city":"Maragheh","countryIso2":"IR","lat":37.348,"lon":46.1279},{"id":"ACR","name":"Araracuara Airport","city":"Araracuara","countryIso2":"CO","lat":-0.5833,"lon":-72.4083},{"id":"ACS","name":"Achinsk Airport","city":"Achinsk","countryIso2":"RU","lat":56.2683,"lon":90.5708},{"id":"ACT","name":"Waco Regional Airport","city":"Waco","countryIso2":"US","lat":31.6113,"lon":-97.2305},{"id":"ACV","name":"Arcata Airport","city":"Arcata CA","countryIso2":"US","lat":40.9781,"lon":-124.109},{"id":"ACX","name":"Xingyi Airport","city":"Xingyi","countryIso2":"CN","lat":25.0864,"lon":104.9594},{"id":"ACY","name":"Atlantic City International Airport","city":"Atlantic City","countryIso2":"US","lat":39.4576,"lon":-74.5772},{"id":"ACZ","name":"Zabol Airport","city":"Zabol","countryIso2":"IR","lat":31.0983,"lon":61.5439},{"id":"ADA","name":"Adana Airport","city":"Adana","countryIso2":"TR","lat":36.9822,"lon":35.2804},{"id":"ADB","name":"Adnan Menderes International Airport","city":"Izmir","countryIso2":"TR","lat":38.2924,"lon":27.157},{"id":"ADD","name":"Addis Ababa Bole International Airport","city":"Addis Ababa","countryIso2":"ET","lat":8.9779,"lon":38.7993},{"id":"ADE","name":"Aden International Airport","city":"Aden","countryIso2":"YE","lat":12.8295,"lon":45.0288},{"id":"ADF","name":"Adıyaman Airport","city":"Adiyaman","countryIso2":"TR","lat":37.7314,"lon":38.4689},{"id":"ADH","name":"Aldan Airport","city":"Aldan","countryIso2":"RU","lat":58.6028,"lon":125.409},{"id":"ADI","name":"Arandis Airport","city":"Arandis","countryIso2":"NA","lat":-22.4622,"lon":14.98},{"id":"ADJ","name":"Amman-Marka International Airport","city":"Amman","countryIso2":"JO","lat":31.9727,"lon":35.9916},{"id":"ADK","name":"Adak Airport","city":"Adak Island","countryIso2":"US","lat":51.878,"lon":-176.646},{"id":"ADL","name":"Adelaide International Airport","city":"Adelaide","countryIso2":"AU","lat":-34.945,"lon":138.531},{"id":"ADM","name":"Ardmore Municipal Airport","city":"Ardmore","countryIso2":"US","lat":34.303,"lon":-97.0196},{"id":"ADQ","name":"Kodiak Airport","city":"Kodiak","countryIso2":"US","lat":57.75,"lon":-152.494},{"id":"ADS","name":"Addison Airport","city":"Addison","countryIso2":"US","lat":32.9686,"lon":-96.8364},{"id":"ADU","name":"Ardabil Airport","city":"Ardabil","countryIso2":"IR","lat":38.3257,"lon":48.4244},{"id":"ADW","name":"Andrews Air Force Base","city":"Camp Springs","countryIso2":"US","lat":38.8108,"lon":-76.867},{"id":"ADX","name":"RAF Leuchars","city":"Leuchars","countryIso2":"GB","lat":56.3729,"lon":-2.8684},{"id":"ADY","name":"Alldays Airport","city":"Alldays","countryIso2":"ZA","lat":-22.679,"lon":29.0555},{"id":"ADZ","name":"Gustavo Rojas Pinilla International Airport","city":"San Andres Island","countryIso2":"CO","lat":12.5836,"lon":-81.7112},{"id":"AEA","name":"Abemama Atoll Airport","city":"Abemama","countryIso2":"KI","lat":0.4908,"lon":173.829},{"id":"AEH","name":"Abeche Airport","city":"Abeche","countryIso2":"TD","lat":13.847,"lon":20.8443},{"id":"AEP","name":"Jorge Newbery Airpark","city":"Buenos Aires","countryIso2":"AR","lat":-34.5592,"lon":-58.4156},{"id":"AER","name":"Sochi International Airport","city":"Sochi","countryIso2":"RU","lat":43.4499,"lon":39.9566},{"id":"AES","name":"Ålesund Airport","city":"Alesund","countryIso2":"NO","lat":62.5625,"lon":6.1197},{"id":"AET","name":"Allakaket Airport","city":"Allakaket","countryIso2":"US","lat":66.5518,"lon":-152.622},{"id":"AEX","name":"Alexandria International Airport","city":"Alexandria","countryIso2":"US","lat":31.3274,"lon":-92.5498},{"id":"AEY","name":"Akureyri Airport","city":"Akureyri","countryIso2":"IS","lat":65.66,"lon":-18.0727},{"id":"AFA","name":"Suboficial Ay Santiago Germano Airport","city":"San Rafael","countryIso2":"AR","lat":-34.5883,"lon":-68.4039},{"id":"AFE","name":"Kake Airport","city":"Kake","countryIso2":"US","lat":56.9614,"lon":-133.91},{"id":"AFL","name":"Piloto Osvaldo Marques Dias Airport","city":"Alta Floresta","countryIso2":"BR","lat":-9.8664,"lon":-56.105},{"id":"AFS","name":"Sugraly Airport","city":"Zarafshan","countryIso2":"UZ","lat":41.6139,"lon":64.2332},{"id":"AFT","name":"Afutara Aerodrome","city":"Afutara","countryIso2":"SB","lat":-9.1914,"lon":160.9486},{"id":"AFW","name":"Fort Worth Alliance Airport","city":"Fort Worth","countryIso2":"US","lat":32.9876,"lon":-97.3188},{"id":"AFY","name":"Afyon Airport","city":"Afyon","countryIso2":"TR","lat":38.7264,"lon":30.6011},{"id":"AFZ","name":"Sabzevar National Airport","city":"Sabzevar","countryIso2":"IR","lat":36.1681,"lon":57.5952},{"id":"AGA","name":"Al Massira Airport","city":"Agadir","countryIso2":"MA","lat":30.325,"lon":-9.4131},{"id":"AGB","name":"Augsburg Airport","city":"Augsburg","countryIso2":"DE","lat":48.4253,"lon":10.9317},{"id":"AGC","name":"Allegheny County Airport","city":"Pittsburgh","countryIso2":"US","lat":40.3544,"lon":-79.9302},{"id":"AGE","name":"Wangerooge Airport","city":"Wangerooge","countryIso2":"DE","lat":53.7828,"lon":7.9139},{"id":"AGF","name":"Agen-La Garenne Airport","city":"Agen","countryIso2":"FR","lat":44.1747,"lon":0.5906},{"id":"AGH","name":"Ängelholm-Helsingborg Airport","city":"Ängelholm","countryIso2":"SE","lat":56.2961,"lon":12.8471},{"id":"AGI","name":"Wageningen Airstrip","city":"Wageningen","countryIso2":"SR","lat":5.7667,"lon":-56.6333},{"id":"AGJ","name":"Aguni Airport","city":"Aguni","countryIso2":"JP","lat":26.5925,"lon":127.241},{"id":"AGM","name":"Tasiilaq Heliport","city":"Angmagssalik","countryIso2":"GL","lat":65.6123,"lon":-37.6183},{"id":"AGN","name":"Angoon Seaplane Base","city":"Angoon","countryIso2":"US","lat":57.5036,"lon":-134.585},{"id":"AGP","name":"Málaga Airport","city":"Malaga","countryIso2":"ES","lat":36.6749,"lon":-4.4991},{"id":"AGQ","name":"Agrinion Air Base","city":"Agrinion","countryIso2":"GR","lat":38.602,"lon":21.3512},{"id":"AGR","name":"Agra Airport","city":"Agra","countryIso2":"IN","lat":27.1558,"lon":77.9609},{"id":"AGS","name":"Augusta Regional At Bush Field","city":"Bush Field","countryIso2":"US","lat":33.3699,"lon":-81.9645},{"id":"AGT","name":"Guarani International Airport","city":"Ciudad del Este","countryIso2":"PY","lat":-25.4545,"lon":-54.8427},{"id":"AGU","name":"Jesús Terán Paredo International Airport","city":"Aguascalientes","countryIso2":"MX","lat":21.7056,"lon":-102.318},{"id":"AGV","name":"Oswaldo Guevara Mujica Airport","city":"Acarigua","countryIso2":"VE","lat":9.5534,"lon":-69.2379},{"id":"AGX","name":"Agatti Airport","city":"Agatti Island","countryIso2":"IN","lat":10.8237,"lon":72.176},{"id":"AGZ","name":"Aggeneys Airport","city":"Aggeneys","countryIso2":"ZA","lat":-29.2818,"lon":18.8139},{"id":"AHB","name":"Abha Regional Airport","city":"Abha","countryIso2":"SA","lat":18.2404,"lon":42.6566},{"id":"AHE","name":"Ahe Airport","city":"Ahe","countryIso2":"PF","lat":-14.4281,"lon":-146.257},{"id":"AHN","name":"Athens Ben Epps Airport","city":"Athens","countryIso2":"US","lat":33.9486,"lon":-83.3263},{"id":"AHO","name":"Alghero-Fertilia Airport","city":"Alghero","countryIso2":"IT","lat":40.6321,"lon":8.2908},{"id":"AHQ","name":"Wahoo Municipal Airport","city":"Wahoo","countryIso2":"US","lat":41.2413,"lon":-96.594},{"id":"AHS","name":"Ahuas Airport","city":"Ahuas","countryIso2":"HN","lat":15.4722,"lon":-84.3522},{"id":"AHU","name":"Cherif Al Idrissi Airport","city":"Al Hociema","countryIso2":"MA","lat":35.1771,"lon":-3.8395},{"id":"AIA","name":"Alliance Municipal Airport","city":"Alliance","countryIso2":"US","lat":42.0532,"lon":-102.804},{"id":"AIK","name":"Aiken Municipal Airport","city":"Aiken","countryIso2":"US","lat":33.6494,"lon":-81.685},{"id":"AIN","name":"Wainwright Airport","city":"Wainwright","countryIso2":"US","lat":70.638,"lon":-159.995},{"id":"AIR","name":"Aripuanã Airport","city":"Aripuana","countryIso2":"BR","lat":-10.2503,"lon":-59.3839},{"id":"AIS","name":"Arorae Island Airport","city":"Arorae","countryIso2":"KI","lat":-2.6161,"lon":176.803},{"id":"AIT","name":"Aitutaki Airport","city":"Aitutaki","countryIso2":"CK","lat":-18.8309,"lon":-159.764},{"id":"AIU","name":"Enua Airport","city":"Atiu Island","countryIso2":"CK","lat":-19.9678,"lon":-158.119},{"id":"AIZ","name":"Lee C Fine Memorial Airport","city":"Kaiser Lake Ozark","countryIso2":"US","lat":38.096,"lon":-92.5495},{"id":"AJA","name":"Ajaccio-Napoléon Bonaparte Airport","city":"Ajaccio","countryIso2":"FR","lat":41.9236,"lon":8.8029},{"id":"AJF","name":"Al-Jawf Domestic Airport","city":"Al-Jawf","countryIso2":"SA","lat":29.7851,"lon":40.1},{"id":"AJI","name":"Ağrı Airport","city":"Agri","countryIso2":"TR","lat":39.6545,"lon":43.026},{"id":"AJL","name":"Lengpui Airport","city":"Aizwal","countryIso2":"IN","lat":23.8406,"lon":92.6197},{"id":"AJN","name":"Ouani Airport","city":"Anjouan","countryIso2":"KM","lat":-12.1317,"lon":44.4303},{"id":"AJR","name":"Arvidsjaur Airport","city":"Arvidsjaur","countryIso2":"SE","lat":65.5903,"lon":19.2819},{"id":"AJU","name":"Santa Maria Airport","city":"Aracaju","countryIso2":"BR","lat":-10.984,"lon":-37.0703},{"id":"AJY","name":"Mano Dayak International Airport","city":"Agadez","countryIso2":"NE","lat":16.966,"lon":8.0001},{"id":"AKA","name":"Ankang Wulipu Airport","city":"Ankang","countryIso2":"CN","lat":32.7081,"lon":108.931},{"id":"AKB","name":"Atka Airport","city":"Atka","countryIso2":"US","lat":52.2203,"lon":-174.206},{"id":"AKC","name":"Akron Fulton International Airport","city":"Akron","countryIso2":"US","lat":41.0375,"lon":-81.4669},{"id":"AKD","name":"Akola Airport","city":"Akola","countryIso2":"IN","lat":20.699,"lon":77.0586},{"id":"AKF","name":"Kufra Airport","city":"Kufra","countryIso2":"LY","lat":24.1787,"lon":23.314},{"id":"AKI","name":"Akiak Airport","city":"Akiak","countryIso2":"US","lat":60.9029,"lon":-161.231},{"id":"AKJ","name":"Asahikawa Airport","city":"Asahikawa","countryIso2":"JP","lat":43.6708,"lon":142.447},{"id":"AKK","name":"Akhiok Airport","city":"Akhiok","countryIso2":"US","lat":56.9387,"lon":-154.183},{"id":"AKL","name":"Auckland International Airport","city":"Auckland","countryIso2":"NZ","lat":-37.0081,"lon":174.792},{"id":"AKN","name":"King Salmon Airport","city":"King Salmon","countryIso2":"US","lat":58.6768,"lon":-156.649},{"id":"AKO","name":"Colorado Plains Regional Airport","city":"Akron","countryIso2":"US","lat":40.1756,"lon":-103.222},{"id":"AKP","name":"Anaktuvuk Pass Airport","city":"Anaktuvuk Pass","countryIso2":"US","lat":68.1336,"lon":-151.743},{"id":"AKR","name":"Akure Airport","city":"Akure","countryIso2":"NG","lat":7.2467,"lon":5.301},{"id":"AKS","name":"Auki Airport","city":"Auki","countryIso2":"SB","lat":-8.7026,"lon":160.682},{"id":"AKT","name":"RAF Akrotiri","city":"Akrotiri","countryIso2":"CY","lat":34.5904,"lon":32.9879},{"id":"AKU","name":"Aksu Airport","city":"Aksu","countryIso2":"CN","lat":41.2625,"lon":80.2917},{"id":"AKV","name":"Akulivik Airport","city":"Akulivik","countryIso2":"CA","lat":60.8186,"lon":-78.1486},{"id":"AKX","name":"Aktobe Airport","city":"Aktyubinsk","countryIso2":"KZ","lat":50.2458,"lon":57.2067},{"id":"AKY","name":"Sittwe Airport","city":"Sittwe","countryIso2":"MM","lat":20.1327,"lon":92.8726},{"id":"ALA","name":"Almaty Airport","city":"Alma-ata","countryIso2":"KZ","lat":43.3521,"lon":77.0405},{"id":"ALB","name":"Albany International Airport","city":"Albany","countryIso2":"US","lat":42.7483,"lon":-73.8017},{"id":"ALC","name":"Alicante International Airport","city":"Alicante","countryIso2":"ES","lat":38.2822,"lon":-0.5582},{"id":"ALF","name":"Alta Airport","city":"Alta","countryIso2":"NO","lat":69.9761,"lon":23.3717},{"id":"ALG","name":"Houari Boumediene Airport","city":"Algier","countryIso2":"DZ","lat":36.691,"lon":3.2154},{"id":"ALH","name":"Albany Airport","city":"Albany","countryIso2":"AU","lat":-34.9433,"lon":117.809},{"id":"ALI","name":"Alice International Airport","city":"Alice","countryIso2":"US","lat":27.7409,"lon":-98.0269},{"id":"ALJ","name":"Alexander Bay Airport","city":"Alexander Bay","countryIso2":"ZA","lat":-28.575,"lon":16.5333},{"id":"ALL","name":"Villanova D'Albenga International Airport","city":"Albenga","countryIso2":"IT","lat":44.0506,"lon":8.1274},{"id":"ALM","name":"Alamogordo White Sands Regional Airport","city":"Alamogordo","countryIso2":"US","lat":32.8399,"lon":-105.991},{"id":"ALN","name":"St Louis Regional Airport","city":"Alton/St Louis","countryIso2":"US","lat":38.8903,"lon":-90.046},{"id":"ALO","name":"Waterloo Regional Airport","city":"Waterloo","countryIso2":"US","lat":42.5571,"lon":-92.4003},{"id":"ALP","name":"Aleppo International Airport","city":"Aleppo","countryIso2":"SY","lat":36.1807,"lon":37.2244},{"id":"ALR","name":"Alexandra Airport","city":"Alexandra","countryIso2":"NZ","lat":-45.2117,"lon":169.373},{"id":"ALS","name":"San Luis Valley Regional Bergman Field","city":"Alamosa","countryIso2":"US","lat":37.4349,"lon":-105.867},{"id":"ALU","name":"Alula Airport","city":"Alula","countryIso2":"SO","lat":11.9582,"lon":50.748},{"id":"ALW","name":"Walla Walla Regional Airport","city":"Walla Walla","countryIso2":"US","lat":46.0949,"lon":-118.288},{"id":"ALX","name":"Thomas C Russell Field","city":"Alexander City","countryIso2":"US","lat":32.9147,"lon":-85.963},{"id":"ALY","name":"El Nouzha Airport","city":"Alexandria","countryIso2":"EG","lat":31.1839,"lon":29.9489},{"id":"AMA","name":"Rick Husband Amarillo International Airport","city":"Amarillo","countryIso2":"US","lat":35.2194,"lon":-101.706},{"id":"AMB","name":"Ambilobe Airport","city":"Ambilobe","countryIso2":"MG","lat":-13.1884,"lon":48.988},{"id":"AMC","name":"Am Timan Airport","city":"Am Timan","countryIso2":"TD","lat":11.034,"lon":20.274},{"id":"AMD","name":"Sardar Vallabhbhai Patel International Airport","city":"Ahmedabad","countryIso2":"IN","lat":23.0772,"lon":72.6347},{"id":"AMH","name":"Arba Minch Airport","city":"Arba Minch","countryIso2":"ET","lat":6.0394,"lon":37.5905},{"id":"AMI","name":"Selaparang Airport","city":"Mataram","countryIso2":"ID","lat":-8.5607,"lon":116.095},{"id":"AMM","name":"Queen Alia International Airport","city":"Amman","countryIso2":"JO","lat":31.7226,"lon":35.9932},{"id":"AMQ","name":"Pattimura Airport, Ambon","city":"Ambon","countryIso2":"ID","lat":-3.7103,"lon":128.089},{"id":"AMS","name":"Amsterdam Airport Schiphol","city":"Amsterdam","countryIso2":"NL","lat":52.3086,"lon":4.7639},{"id":"AMV","name":"Amderma Airport","city":"Amderma","countryIso2":"RU","lat":69.7633,"lon":61.5564},{"id":"AMZ","name":"Ardmore Airport","city":"Ardmore","countryIso2":"NZ","lat":-37.0297,"lon":174.973},{"id":"ANB","name":"Anniston Metropolitan Airport","city":"Anniston","countryIso2":"US","lat":33.5882,"lon":-85.8581},{"id":"ANC","name":"Ted Stevens Anchorage International Airport","city":"Anchorage","countryIso2":"US","lat":61.1744,"lon":-149.996},{"id":"AND","name":"Anderson Regional Airport","city":"Andersen","countryIso2":"US","lat":34.4946,"lon":-82.7094},{"id":"ANE","name":"Angers-Loire Airport","city":"Angers/Marcé","countryIso2":"FR","lat":47.5603,"lon":-0.3122},{"id":"ANF","name":"Cerro Moreno Airport","city":"Antofagasta","countryIso2":"CL","lat":-23.4445,"lon":-70.4451},{"id":"ANG","name":"Angoulême-Brie-Champniers Airport","city":"Angouleme","countryIso2":"FR","lat":45.7292,"lon":0.2215},{"id":"ANI","name":"Aniak Airport","city":"Aniak","countryIso2":"US","lat":61.5816,"lon":-159.543},{"id":"ANK","name":"Etimesgut Air Base","city":"Ankara","countryIso2":"TR","lat":39.9498,"lon":32.6886},{"id":"ANM","name":"Antsirabato Airport","city":"Antalaha","countryIso2":"MG","lat":-14.9994,"lon":50.3202},{"id":"ANN","name":"Annette Island Airport","city":"Annette Island","countryIso2":"US","lat":55.0424,"lon":-131.572},{"id":"ANP","name":"Lee Airport","city":"Annapolis","countryIso2":"US","lat":38.9429,"lon":-76.5684},{"id":"ANQ","name":"Tri State Steuben County Airport","city":"Angola","countryIso2":"US","lat":41.6397,"lon":-85.0835},{"id":"ANR","name":"Antwerp International Airport (Deurne)","city":"Antwerp","countryIso2":"BE","lat":51.1894,"lon":4.4603},{"id":"ANS","name":"Andahuaylas Airport","city":"Andahuaylas","countryIso2":"PE","lat":-13.7064,"lon":-73.3504},{"id":"ANU","name":"V.C. Bird International Airport","city":"Antigua","countryIso2":"AG","lat":17.1367,"lon":-61.7927},{"id":"ANV","name":"Anvik Airport","city":"Anvik","countryIso2":"US","lat":62.6467,"lon":-160.191},{"id":"ANX","name":"Andøya Airport","city":"Andoya","countryIso2":"NO","lat":69.2925,"lon":16.1442},{"id":"AOC","name":"Altenburg-Nobitz Airport","city":"Altenburg","countryIso2":"DE","lat":50.9819,"lon":12.5064},{"id":"AOE","name":"Anadolu Airport","city":"Eskissehir","countryIso2":"TR","lat":39.8099,"lon":30.5194},{"id":"AOG","name":"Anshan Air Base","city":"Anshan","countryIso2":"CN","lat":41.1053,"lon":122.854},{"id":"AOH","name":"Lima Allen County Airport","city":"Lima","countryIso2":"US","lat":40.7069,"lon":-84.0267},{"id":"AOI","name":"Ancona Falconara Airport","city":"Ancona","countryIso2":"IT","lat":43.6163,"lon":13.3623},{"id":"AOJ","name":"Aomori Airport","city":"Aomori","countryIso2":"JP","lat":40.7347,"lon":140.691},{"id":"AOK","name":"Karpathos Airport","city":"Karpathos","countryIso2":"GR","lat":35.4214,"lon":27.146},{"id":"AOL","name":"Paso De Los Libres Airport","city":"Paso De Los Libres","countryIso2":"AR","lat":-29.6894,"lon":-57.1521},{"id":"AOO","name":"Altoona Blair County Airport","city":"Altoona","countryIso2":"US","lat":40.2964,"lon":-78.32},{"id":"AOR","name":"Sultan Abdul Halim Airport","city":"Alor Setar","countryIso2":"MY","lat":6.1897,"lon":100.398},{"id":"AOT","name":"Aosta Airport","city":"Aosta","countryIso2":"IT","lat":45.7385,"lon":7.3687},{"id":"AOU","name":"Attopeu Airport","city":"Attopeu","countryIso2":"LA","lat":14.8147,"lon":106.8217},{"id":"APA","name":"Centennial Airport","city":"Denver","countryIso2":"US","lat":39.5701,"lon":-104.849},{"id":"APC","name":"Napa County Airport","city":"Napa","countryIso2":"US","lat":38.2132,"lon":-122.281},{"id":"APF","name":"Naples Municipal Airport","city":"Naples","countryIso2":"US","lat":26.1526,"lon":-81.7753},{"id":"APG","name":"Phillips Army Air Field","city":"Aberdeen","countryIso2":"US","lat":39.4662,"lon":-76.1688},{"id":"API","name":"Gomez Nino Apiay Air Base","city":"Apiay","countryIso2":"CO","lat":4.0761,"lon":-73.5627},{"id":"APK","name":"Apataki Airport","city":"Apataki","countryIso2":"PF","lat":-15.5736,"lon":-146.415},{"id":"APL","name":"Nampula Airport","city":"Nampula","countryIso2":"MZ","lat":-15.1056,"lon":39.2818},{"id":"APN","name":"Alpena County Regional Airport","city":"Alpena","countryIso2":"US","lat":45.0781,"lon":-83.5603},{"id":"APO","name":"Antonio Roldan Betancourt Airport","city":"Carepa","countryIso2":"CO","lat":7.812,"lon":-76.7164},{"id":"APQ","name":"Arapiraca Airport","city":"Arapiraca","countryIso2":"BR","lat":-9.7754,"lon":-36.6292},{"id":"APW","name":"Faleolo International Airport","city":"Faleolo","countryIso2":"WS","lat":-13.83,"lon":-172.008},{"id":"APZ","name":"Zapala Airport","city":"ZAPALA","countryIso2":"AR","lat":-38.9755,"lon":-70.1136},{"id":"AQA","name":"Araraquara Airport","city":"Araracuara","countryIso2":"BR","lat":-21.812,"lon":-48.133},{"id":"AQB","name":"Santa Cruz del Quiche Airport","city":"Santa Cruz des Quiche","countryIso2":"GT","lat":15.0122,"lon":-91.1506},{"id":"AQC","name":"Klawock Seaplane Base","city":"Klawock","countryIso2":"US","lat":55.5547,"lon":-133.102},{"id":"AQG","name":"Anqing Tianzhushan Airport","city":"Anqing","countryIso2":"CN","lat":30.5822,"lon":117.05},{"id":"AQI","name":"Al Qaisumah/Hafr Al Batin Airport","city":"Hafr Al-batin","countryIso2":"SA","lat":28.3352,"lon":46.1251},{"id":"AQJ","name":"Aqaba King Hussein International Airport","city":"Aqaba","countryIso2":"JO","lat":29.6116,"lon":35.0181},{"id":"AQP","name":"Rodríguez Ballón International Airport","city":"Arequipa","countryIso2":"PE","lat":-16.3411,"lon":-71.5831},{"id":"ARA","name":"Acadiana Regional Airport","city":"Louisiana","countryIso2":"US","lat":30.0378,"lon":-91.8839},{"id":"ARB","name":"Ann Arbor Municipal Airport","city":"Ann Arbor","countryIso2":"US","lat":42.223,"lon":-83.7456},{"id":"ARC","name":"Arctic Village Airport","city":"Arctic Village","countryIso2":"US","lat":68.1147,"lon":-145.579},{"id":"ARD","name":"Mali Airport","city":"Alor Island","countryIso2":"ID","lat":-8.1323,"lon":124.597},{"id":"ARE","name":"Antonio Nery Juarbe Pol Airport","city":"Arecibo","countryIso2":"PR","lat":18.45,"lon":-66.6753},{"id":"ARH","name":"Talagi Airport","city":"Arkhangelsk","countryIso2":"RU","lat":64.6003,"lon":40.7167},{"id":"ARI","name":"Chacalluta Airport","city":"Arica","countryIso2":"CL","lat":-18.3485,"lon":-70.3387},{"id":"ARK","name":"Arusha Airport","city":"Arusha","countryIso2":"TZ","lat":-3.3678,"lon":36.6333},{"id":"ARM","name":"Armidale Airport","city":"Armidale","countryIso2":"AU","lat":-30.5281,"lon":151.617},{"id":"ARN","name":"Stockholm-Arlanda Airport","city":"Stockholm","countryIso2":"SE","lat":59.6519,"lon":17.9186},{"id":"ARR","name":"D. Casimiro Szlapelis Airport","city":"Alto Rio Senguer","countryIso2":"AR","lat":-45.0136,"lon":-70.8122},{"id":"ART","name":"Watertown International Airport","city":"Watertown","countryIso2":"US","lat":43.9919,"lon":-76.0217},{"id":"ARU","name":"Araçatuba Airport","city":"Aracatuba","countryIso2":"BR","lat":-21.1413,"lon":-50.4247},{"id":"ARV","name":"Lakeland-Noble F. Lee Memorial field","city":"Minocqua - Woodruff","countryIso2":"US","lat":45.9279,"lon":-89.7309},{"id":"ARW","name":"Arad International Airport","city":"Arad","countryIso2":"RO","lat":46.1766,"lon":21.262},{"id":"ARY","name":"Ararat Airport","city":"","countryIso2":"AU","lat":-37.3094,"lon":142.989},{"id":"ASA","name":"Assab International Airport","city":"Assab","countryIso2":"ER","lat":13.0718,"lon":42.645},{"id":"ASB","name":"Ashgabat Airport","city":"Ashkhabad","countryIso2":"TM","lat":37.9868,"lon":58.361},{"id":"ASD","name":"Andros Town Airport","city":"Andros Town","countryIso2":"BS","lat":24.6979,"lon":-77.7956},{"id":"ASE","name":"Aspen-Pitkin Co/Sardy Field","city":"Aspen","countryIso2":"US","lat":39.2232,"lon":-106.869},{"id":"ASF","name":"Astrakhan Airport","city":"Astrakhan","countryIso2":"RU","lat":46.2833,"lon":48.0063},{"id":"ASH","name":"Boire Field","city":"Nashua","countryIso2":"US","lat":42.7817,"lon":-71.5148},{"id":"ASI","name":"RAF Ascension Island","city":"Wide Awake","countryIso2":"SH","lat":-7.9696,"lon":-14.3937},{"id":"ASJ","name":"Amami Airport","city":"Amami","countryIso2":"JP","lat":28.4306,"lon":129.713},{"id":"ASK","name":"Yamoussoukro Airport","city":"Yamoussoukro","countryIso2":"CI","lat":6.9032,"lon":-5.3656},{"id":"ASM","name":"Asmara International Airport","city":"Asmara","countryIso2":"ER","lat":15.2919,"lon":38.9107},{"id":"ASN","name":"Talladega Municipal Airport","city":"Talladega","countryIso2":"US","lat":33.5699,"lon":-86.0509},{"id":"ASO","name":"Asosa Airport","city":"Asosa","countryIso2":"ET","lat":10.0185,"lon":34.5863},{"id":"ASP","name":"Alice Springs Airport","city":"Alice Springs","countryIso2":"AU","lat":-23.8067,"lon":133.902},{"id":"ASR","name":"Kayseri Erkilet Airport","city":"Kayseri","countryIso2":"TR","lat":38.7704,"lon":35.4954},{"id":"AST","name":"Astoria Regional Airport","city":"Astoria","countryIso2":"US","lat":46.158,"lon":-123.879},{"id":"ASU","name":"Silvio Pettirossi International Airport","city":"Asuncion","countryIso2":"PY","lat":-25.24,"lon":-57.52},{"id":"ASV","name":"Amboseli Airport","city":"Amboseli National Park","countryIso2":"KE","lat":-2.6451,"lon":37.2531},{"id":"ASW","name":"Aswan International Airport","city":"Aswan","countryIso2":"EG","lat":23.9644,"lon":32.82},{"id":"ATA","name":"Comandante FAP German Arias Graziani Airport","city":"Anta","countryIso2":"PE","lat":-9.3474,"lon":-77.5984},{"id":"ATB","name":"Atbara Airport","city":"Atbara","countryIso2":"SD","lat":17.7103,"lon":34.057},{"id":"ATC","name":"Arthur's Town Airport","city":"Arthur's Town","countryIso2":"BS","lat":24.6294,"lon":-75.6738},{"id":"ATD","name":"Uru Harbour Airport","city":"Atoifi","countryIso2":"SB","lat":-8.8733,"lon":161.011},{"id":"ATF","name":"Chachoán Airport","city":"Ambato","countryIso2":"EC","lat":-1.2121,"lon":-78.5746},{"id":"ATG","name":"Minhas Air Base","city":"Kamra","countryIso2":"PK","lat":33.8691,"lon":72.4009},{"id":"ATH","name":"Eleftherios Venizelos International Airport","city":"Athens","countryIso2":"GR","lat":37.9364,"lon":23.9445},{"id":"ATI","name":"Artigas International Airport","city":"Artigas ","countryIso2":"UY","lat":-30.4007,"lon":-56.5079},{"id":"ATJ","name":"Antsirabe Airport","city":"Antsirabe","countryIso2":"MG","lat":-19.8392,"lon":47.0637},{"id":"ATK","name":"Atqasuk Edward Burnell Sr Memorial Airport","city":"Atqasuk","countryIso2":"US","lat":70.4673,"lon":-157.436},{"id":"ATL","name":"Hartsfield Jackson Atlanta International Airport","city":"Atlanta","countryIso2":"US","lat":33.6367,"lon":-84.4281},{"id":"ATM","name":"Altamira Airport","city":"Altamira","countryIso2":"BR","lat":-3.2539,"lon":-52.254},{"id":"ATQ","name":"Sri Guru Ram Dass Jee International Airport","city":"Amritsar","countryIso2":"IN","lat":31.7096,"lon":74.7973},{"id":"ATR","name":"Atar International Airport","city":"Atar","countryIso2":"MR","lat":20.5068,"lon":-13.0432},{"id":"ATW","name":"Appleton International Airport","city":"Appleton","countryIso2":"US","lat":44.2581,"lon":-88.5191},{"id":"ATY","name":"Watertown Regional Airport","city":"Watertown","countryIso2":"US","lat":44.914,"lon":-97.1547},{"id":"ATZ","name":"Assiut International Airport","city":"Asyut","countryIso2":"EG","lat":27.0465,"lon":31.012},{"id":"AUA","name":"Queen Beatrix International Airport","city":"Oranjestad","countryIso2":"AW","lat":12.5014,"lon":-70.0152},{"id":"AUC","name":"Santiago Perez Airport","city":"Arauca","countryIso2":"CO","lat":7.0689,"lon":-70.7369},{"id":"AUF","name":"Auxerre-Branches Airport","city":"Auxerre","countryIso2":"FR","lat":47.8502,"lon":3.4971},{"id":"AUG","name":"Augusta State Airport","city":"Augusta","countryIso2":"US","lat":44.3206,"lon":-69.7973},{"id":"AUH","name":"Abu Dhabi International Airport","city":"Abu Dhabi","countryIso2":"AE","lat":24.433,"lon":54.6511},{"id":"AUK","name":"Alakanuk Airport","city":"Alakanuk","countryIso2":"US","lat":62.68,"lon":-164.6599},{"id":"AUO","name":"Auburn Opelika Robert G. Pitts Airport","city":"Auburn","countryIso2":"US","lat":32.6151,"lon":-85.434},{"id":"AUQ","name":"Hiva Oa-Atuona Airport","city":"Hiva-oa","countryIso2":"PF","lat":-9.7688,"lon":-139.011},{"id":"AUR","name":"Aurillac Airport","city":"Aurillac","countryIso2":"FR","lat":44.8914,"lon":2.4219},{"id":"AUS","name":"Austin Bergstrom International Airport","city":"Austin","countryIso2":"US","lat":30.1945,"lon":-97.6699},{"id":"AUU","name":"Aurukun Airport","city":"Aurukun","countryIso2":"AU","lat":-13.3541,"lon":141.7207},{"id":"AUW","name":"Wausau Downtown Airport","city":"Wausau","countryIso2":"US","lat":44.9262,"lon":-89.6266},{"id":"AUX","name":"Araguaína Airport","city":"Araguaina","countryIso2":"BR","lat":-7.2279,"lon":-48.2405},{"id":"AUY","name":"Aneityum Airport","city":"Anelghowhat","countryIso2":"VU","lat":-20.2492,"lon":169.771},{"id":"AVA","name":"Anshun Huangguoshu Airport","city":"Anshun","countryIso2":"CN","lat":26.2606,"lon":105.8733},{"id":"AVB","name":"Aviano Air Base","city":"Aviano","countryIso2":"IT","lat":46.0319,"lon":12.5965},{"id":"AVI","name":"Maximo Gomez Airport","city":"Ciego De Avila","countryIso2":"CU","lat":22.0271,"lon":-78.7896},{"id":"AVK","name":"Arvaikheer Airport","city":"Arvaikheer","countryIso2":"MN","lat":46.2503,"lon":102.802},{"id":"AVL","name":"Asheville Regional Airport","city":"Asheville","countryIso2":"US","lat":35.4362,"lon":-82.5418},{"id":"AVN","name":"Avignon-Caumont Airport","city":"Avignon","countryIso2":"FR","lat":43.9073,"lon":4.9018},{"id":"AVO","name":"Avon Park Executive Airport","city":"Avon Park","countryIso2":"US","lat":27.5912,"lon":-81.5278},{"id":"AVP","name":"Wilkes Barre Scranton International Airport","city":"Scranton","countryIso2":"US","lat":41.3385,"lon":-75.7234},{"id":"AVV","name":"Avalon Airport","city":"Avalon","countryIso2":"AU","lat":-38.0394,"lon":144.469},{"id":"AVW","name":"Marana Regional Airport","city":"Tucson","countryIso2":"US","lat":32.4096,"lon":-111.218},{"id":"AVX","name":"Catalina Airport","city":"Catalina Island","countryIso2":"US","lat":33.4049,"lon":-118.416},{"id":"AWA","name":"Awassa Airport","city":"Awasa","countryIso2":"ET","lat":7.067,"lon":38.5},{"id":"AWD","name":"Aniwa Airport","city":"Aniwa","countryIso2":"VU","lat":-19.2346,"lon":169.6009},{"id":"AWK","name":"Wake Island Airfield","city":"Wake island","countryIso2":"UM","lat":19.2821,"lon":166.636},{"id":"AWO","name":"Arlington Municipal Airport","city":"Arlington","countryIso2":"US","lat":48.1607,"lon":-122.159},{"id":"AWZ","name":"Ahwaz Airport","city":"Ahwaz","countryIso2":"IR","lat":31.3374,"lon":48.762},{"id":"AXA","name":"Wallblake Airport","city":"The Valley","countryIso2":"AI","lat":18.2048,"lon":-63.0551},{"id":"AXD","name":"Dimokritos Airport","city":"Alexandroupolis","countryIso2":"GR","lat":40.8559,"lon":25.9563},{"id":"AXJ","name":"Amakusa Airport","city":"Amakusa","countryIso2":"JP","lat":32.4825,"lon":130.159},{"id":"AXK","name":"Ataq Airport","city":"Ataq","countryIso2":"YE","lat":14.5513,"lon":46.8262},{"id":"AXM","name":"El Eden Airport","city":"Armenia","countryIso2":"CO","lat":4.4528,"lon":-75.7664},{"id":"AXN","name":"Chandler Field","city":"Alexandria","countryIso2":"US","lat":45.8663,"lon":-95.3947},{"id":"AXP","name":"Spring Point Airport","city":"Spring Point","countryIso2":"BS","lat":22.4418,"lon":-73.9709},{"id":"AXR","name":"Arutua Airport","city":"Arutua","countryIso2":"PF","lat":-15.2483,"lon":-146.617},{"id":"AXT","name":"Akita Airport","city":"Akita","countryIso2":"JP","lat":39.6156,"lon":140.219},{"id":"AXU","name":"Axum Airport","city":"Axum","countryIso2":"ET","lat":14.1468,"lon":38.7728},{"id":"AYK","name":"Arkalyk North Airport","city":"Arkalyk","countryIso2":"KZ","lat":50.3186,"lon":66.9528},{"id":"AYP","name":"Coronel FAP Alfredo Mendivil Duarte Airport","city":"Ayacucho","countryIso2":"PE","lat":-13.1548,"lon":-74.2044},{"id":"AYQ","name":"Ayers Rock Connellan Airport","city":"Uluru","countryIso2":"AU","lat":-25.1861,"lon":130.976},{"id":"AYT","name":"Antalya International Airport","city":"Antalya","countryIso2":"TR","lat":36.8987,"lon":30.8005},{"id":"AZA","name":"Phoenix-Mesa-Gateway Airport","city":"Mesa","countryIso2":"US","lat":33.3078,"lon":-111.655},{"id":"AZD","name":"Shahid Sadooghi Airport","city":"Yazd","countryIso2":"IR","lat":31.9049,"lon":54.2765},{"id":"AZI","name":"Bateen Airport","city":"Abu Dhabi","countryIso2":"AE","lat":24.4283,"lon":54.4581},{"id":"AZN","name":"Andizhan Airport","city":"Andizhan","countryIso2":"UZ","lat":40.7277,"lon":72.294},{"id":"AZO","name":"Kalamazoo Battle Creek International Airport","city":"Kalamazoo","countryIso2":"US","lat":42.2349,"lon":-85.5521},{"id":"AZR","name":"Touat Cheikh Sidi Mohamed Belkebir Airport","city":"Adrar","countryIso2":"DZ","lat":27.8376,"lon":-0.1864},{"id":"AZS","name":"Samaná El Catey International Airport","city":"Samana","countryIso2":"DO","lat":19.267,"lon":-69.742},{"id":"BAB","name":"Beale Air Force Base","city":"Marysville","countryIso2":"US","lat":39.1361,"lon":-121.437},{"id":"BAD","name":"Barksdale Air Force Base","city":"Shreveport","countryIso2":"US","lat":32.5018,"lon":-93.6627},{"id":"BAF","name":"Barnes Municipal Airport","city":"Westfield","countryIso2":"US","lat":42.1578,"lon":-72.7156},{"id":"BAG","name":"Loakan Airport","city":"Baguio","countryIso2":"PH","lat":16.3751,"lon":120.62},{"id":"BAH","name":"Bahrain International Airport","city":"Bahrain","countryIso2":"BH","lat":26.2708,"lon":50.6336},{"id":"BAL","name":"Batman Airport","city":"Batman","countryIso2":"TR","lat":37.929,"lon":41.1166},{"id":"BAQ","name":"Ernesto Cortissoz International Airport","city":"Barranquilla","countryIso2":"CO","lat":10.8896,"lon":-74.7808},{"id":"BAS","name":"Ballalae Airport","city":"Ballalae","countryIso2":"SB","lat":-6.9907,"lon":155.8867},{"id":"BAT","name":"Chafei Amsei Airport","city":"Barretos","countryIso2":"BR","lat":-20.5845,"lon":-48.5941},{"id":"BAU","name":"Bauru Airport","city":"Bauru","countryIso2":"BR","lat":-22.345,"lon":-49.0538},{"id":"BAV","name":"Baotou Airport","city":"Baotou","countryIso2":"CN","lat":40.56,"lon":109.997},{"id":"BAX","name":"Barnaul Airport","city":"Barnaul","countryIso2":"RU","lat":53.3638,"lon":83.5385},{"id":"BAY","name":"Tautii Magheraus Airport","city":"Baia Mare","countryIso2":"RO","lat":47.6584,"lon":23.47},{"id":"BAZ","name":"Barcelos Airport","city":"Barcelos","countryIso2":"BR","lat":-0.9813,"lon":-62.9196},{"id":"BBA","name":"Balmaceda Airport","city":"Balmaceda","countryIso2":"CL","lat":-45.9161,"lon":-71.6895},{"id":"BBD","name":"Curtis Field","city":"Brady","countryIso2":"US","lat":31.1793,"lon":-99.3239},{"id":"BBG","name":"Butaritari Atoll Airport","city":"Butaritari","countryIso2":"KI","lat":3.0858,"lon":172.811},{"id":"BBH","name":"Barth Airport","city":"Barth","countryIso2":"DE","lat":54.3383,"lon":12.7105},{"id":"BBI","name":"Biju Patnaik Airport","city":"Bhubaneswar","countryIso2":"IN","lat":20.2444,"lon":85.8178},{"id":"BBJ","name":"Bitburg Airport","city":"Birburg","countryIso2":"DE","lat":49.9453,"lon":6.565},{"id":"BBK","name":"Kasane Airport","city":"Kasane","countryIso2":"BW","lat":-17.8329,"lon":25.1624},{"id":"BBM","name":"Battambang Airport","city":"Battambang","countryIso2":"KH","lat":13.0956,"lon":103.224},{"id":"BBN","name":"Bario Airport","city":"Bario","countryIso2":"MY","lat":3.7339,"lon":115.479},{"id":"BBO","name":"Berbera Airport","city":"Berbera","countryIso2":"SO","lat":10.3892,"lon":44.9411},{"id":"BBP","name":"Bembridge Airport","city":"Bembridge","countryIso2":"GB","lat":50.6781,"lon":-1.1094},{"id":"BBQ","name":"Codrington Airport","city":"Codrington","countryIso2":"AG","lat":17.6358,"lon":-61.8286},{"id":"BBR","name":"Baillif Airport","city":"Basse Terre","countryIso2":"GP","lat":16.0133,"lon":-61.7422},{"id":"BBS","name":"Blackbushe Airport","city":"Blackbushe","countryIso2":"GB","lat":51.3239,"lon":-0.8475},{"id":"BBT","name":"Berbérati Airport","city":"Berberati","countryIso2":"CF","lat":4.2216,"lon":15.7864},{"id":"BBU","name":"Băneasa International Airport","city":"Bucharest","countryIso2":"RO","lat":44.5032,"lon":26.1021},{"id":"BBX","name":"Wings Field","city":"Philadelphia","countryIso2":"US","lat":40.1375,"lon":-75.2651},{"id":"BCA","name":"Gustavo Rizo Airport","city":"Baracoa Playa","countryIso2":"CU","lat":20.3653,"lon":-74.5062},{"id":"BCD","name":"Bacolod-Silay City International Airport","city":"Bacolod","countryIso2":"PH","lat":10.7764,"lon":123.015},{"id":"BCE","name":"Bryce Canyon Airport","city":"Bryce Canyon","countryIso2":"US","lat":37.7064,"lon":-112.145},{"id":"BCI","name":"Barcaldine Airport","city":"Barcaldine","countryIso2":"AU","lat":-23.5653,"lon":145.307},{"id":"BCL","name":"Barra del Colorado Airport","city":"Pococi","countryIso2":"CR","lat":10.7687,"lon":-83.5856},{"id":"BCM","name":"Bacău Airport","city":"Bacau","countryIso2":"RO","lat":46.5219,"lon":26.9103},{"id":"BCN","name":"Barcelona International Airport","city":"Barcelona","countryIso2":"ES","lat":41.2971,"lon":2.0785},{"id":"BCO","name":"Baco Airport","city":"Baco","countryIso2":"ET","lat":5.7829,"lon":36.562},{"id":"BCT","name":"Boca Raton Airport","city":"Boca Raton","countryIso2":"US","lat":26.3785,"lon":-80.1077},{"id":"BCV","name":"Birchwood Airport","city":"Belmopan","countryIso2":"BZ","lat":61.4165,"lon":-149.507},{"id":"BDA","name":"L.F. Wade International International Airport","city":"Bermuda","countryIso2":"BM","lat":32.364,"lon":-64.6787},{"id":"BDB","name":"Bundaberg Airport","city":"Bundaberg","countryIso2":"AU","lat":-24.9039,"lon":152.319},{"id":"BDD","name":"Badu Island Airport","city":"Badu Island","countryIso2":"AU","lat":-10.15,"lon":142.1734},{"id":"BDE","name":"Baudette International Airport","city":"Baudette","countryIso2":"US","lat":48.7284,"lon":-94.6122},{"id":"BDH","name":"Bandar Lengeh Airport","city":"Bandar Lengeh","countryIso2":"IR","lat":26.532,"lon":54.8248},{"id":"BDI","name":"Bird Island Airport","city":"Bird Island","countryIso2":"SC","lat":-3.7247,"lon":55.2053},{"id":"BDJ","name":"Syamsudin Noor Airport","city":"Banjarmasin","countryIso2":"ID","lat":-3.4424,"lon":114.763},{"id":"BDL","name":"Bradley International Airport","city":"Windsor Locks","countryIso2":"US","lat":41.9389,"lon":-72.6832},{"id":"BDM","name":"Bandırma Airport","city":"Bandirma","countryIso2":"TR","lat":40.318,"lon":27.9777},{"id":"BDN","name":"Talhar Airport","city":"Talhar","countryIso2":"PK","lat":24.8415,"lon":68.8384},{"id":"BDO","name":"Husein Sastranegara International Airport","city":"Bandung","countryIso2":"ID","lat":-6.9006,"lon":107.576},{"id":"BDP","name":"Bhadrapur Airport","city":"Chandragarhi","countryIso2":"NP","lat":26.5708,"lon":88.0796},{"id":"BDQ","name":"Vadodara Airport","city":"Baroda","countryIso2":"IN","lat":22.3362,"lon":73.2263},{"id":"BDR","name":"Igor I Sikorsky Memorial Airport","city":"Stratford","countryIso2":"US","lat":41.1635,"lon":-73.1262},{"id":"BDS","name":"Brindisi – Salento Airport","city":"Brindisi","countryIso2":"IT","lat":40.6576,"lon":17.947},{"id":"BDT","name":"Gbadolite Airport","city":"Gbadolite","countryIso2":"CD","lat":4.2532,"lon":20.9753},{"id":"BDU","name":"Bardufoss Airport","city":"Bardufoss","countryIso2":"NO","lat":69.0558,"lon":18.5404},{"id":"BEB","name":"Benbecula Airport","city":"Benbecula","countryIso2":"GB","lat":57.4811,"lon":-7.3628},{"id":"BEC","name":"Beech Factory Airport","city":"Wichita","countryIso2":"US","lat":37.6945,"lon":-97.215},{"id":"BED","name":"Laurence G Hanscom Field","city":"Bedford","countryIso2":"US","lat":42.47,"lon":-71.289},{"id":"BEF","name":"Bluefields Airport","city":"Bluefields","countryIso2":"NI","lat":11.991,"lon":-83.7741},{"id":"BEG","name":"Belgrade Nikola Tesla Airport","city":"Belgrade","countryIso2":"RS","lat":44.8184,"lon":20.3091},{"id":"BEI","name":"Beica Airport","city":"Beica","countryIso2":"ET","lat":9.3864,"lon":34.5219},{"id":"BEJ","name":"Barau(Kalimaru) Airport","city":"Tanjung Redep-Borneo Island","countryIso2":"ID","lat":2.1555,"lon":117.432},{"id":"BEL","name":"Val de Cans/Júlio Cezar Ribeiro International Airport","city":"Belem","countryIso2":"BR","lat":-1.3793,"lon":-48.4763},{"id":"BEM","name":"Beni Mellal Airport","city":"Beni Mellal","countryIso2":"MA","lat":32.4,"lon":-6.3333},{"id":"BEN","name":"Benina International Airport","city":"Benghazi","countryIso2":"LY","lat":32.0968,"lon":20.2695},{"id":"BEO","name":"Lake Macquarie Airport","city":"Lake Macquarie","countryIso2":"AU","lat":-33.0667,"lon":151.648},{"id":"BEP","name":"Bellary Airport","city":"Bellary","countryIso2":"IN","lat":15.1628,"lon":76.8828},{"id":"BEQ","name":"RAF Honington","city":"Honington","countryIso2":"GB","lat":52.3426,"lon":0.7729},{"id":"BES","name":"Brest Bretagne Airport","city":"Brest","countryIso2":"FR","lat":48.4479,"lon":-4.4185},{"id":"BET","name":"Bethel Airport","city":"Bethel","countryIso2":"US","lat":60.7798,"lon":-161.838},{"id":"BEU","name":"Bedourie Airport","city":"Bedourie","countryIso2":"AU","lat":-24.3461,"lon":139.46},{"id":"BEV","name":"Beersheba (Teyman) Airport","city":"Beer-sheba","countryIso2":"IL","lat":31.287,"lon":34.723},{"id":"BEW","name":"Beira Airport","city":"Beira","countryIso2":"MZ","lat":-19.7964,"lon":34.9076},{"id":"BEY","name":"Beirut Rafic Hariri International Airport","city":"Beirut","countryIso2":"LB","lat":33.8209,"lon":35.4884},{"id":"BEZ","name":"Beru Airport","city":"Beru Island","countryIso2":"KI","lat":-1.3547,"lon":176.007},{"id":"BFD","name":"Bradford Regional Airport","city":"Bradford","countryIso2":"US","lat":41.8031,"lon":-78.6401},{"id":"BFF","name":"Western Neb. Rgnl/William B. Heilig Airport","city":"Scottsbluff","countryIso2":"US","lat":41.874,"lon":-103.596},{"id":"BFH","name":"Bacacheri Airport","city":"Curitiba","countryIso2":"BR","lat":-25.4051,"lon":-49.232},{"id":"BFI","name":"Boeing Field King County International Airport","city":"Seattle","countryIso2":"US","lat":47.53,"lon":-122.302},{"id":"BFJ","name":"Bijie Feixiong Airport","city":"Bijie","countryIso2":"CN","lat":27.2671,"lon":105.4721},{"id":"BFL","name":"Meadows Field","city":"Bakersfield","countryIso2":"US","lat":35.4336,"lon":-119.057},{"id":"BFM","name":"Mobile Downtown Airport","city":"Mobile","countryIso2":"US","lat":30.6268,"lon":-88.0681},{"id":"BFN","name":"Bram Fischer International Airport","city":"Bloemfontein","countryIso2":"ZA","lat":-29.0927,"lon":26.3024},{"id":"BFO","name":"Buffalo Range Airport","city":"Chiredzi","countryIso2":"ZW","lat":-21.0081,"lon":31.5786},{"id":"BFP","name":"Beaver County Airport","city":"Beaver Falls","countryIso2":"US","lat":40.7725,"lon":-80.3914},{"id":"BFS","name":"Belfast International Airport","city":"Belfast","countryIso2":"GB","lat":54.6575,"lon":-6.2158},{"id":"BFT","name":"Beaufort County Airport","city":"Beaufort","countryIso2":"US","lat":32.4122,"lon":-80.6344},{"id":"BFU","name":"Bengbu Airport","city":"Bengbu","countryIso2":"CN","lat":32.8477,"lon":117.3202},{"id":"BFV","name":"Buri Ram Airport","city":"Buri Ram","countryIso2":"TH","lat":15.2295,"lon":103.253},{"id":"BFX","name":"Bafoussam Airport","city":"Bafoussam","countryIso2":"CM","lat":5.5369,"lon":10.3546},{"id":"BGA","name":"Palonegro Airport","city":"Bucaramanga","countryIso2":"CO","lat":7.1265,"lon":-73.1848},{"id":"BGC","name":"Bragança Airport","city":"Braganca","countryIso2":"PT","lat":41.8578,"lon":-6.7071},{"id":"BGE","name":"Decatur County Industrial Air Park","city":"Bainbridge","countryIso2":"US","lat":30.9715,"lon":-84.6374},{"id":"BGF","name":"Bangui M'Poko International Airport","city":"Bangui","countryIso2":"CF","lat":4.3985,"lon":18.5188},{"id":"BGI","name":"Sir Grantley Adams International Airport","city":"Bridgetown","countryIso2":"BB","lat":13.0746,"lon":-59.4925},{"id":"BGM","name":"Greater Binghamton/Edwin A Link field","city":"Binghamton","countryIso2":"US","lat":42.2087,"lon":-75.9798},{"id":"BGO","name":"Bergen Airport Flesland","city":"Bergen","countryIso2":"NO","lat":60.2934,"lon":5.2181},{"id":"BGR","name":"Bangor International Airport","city":"Bangor","countryIso2":"US","lat":44.8074,"lon":-68.8281},{"id":"BGW","name":"Baghdad International Airport","city":"Baghdad","countryIso2":"IQ","lat":33.2625,"lon":44.2346},{"id":"BGX","name":"Comandante Gustavo Kraemer Airport","city":"Bage","countryIso2":"BR","lat":-31.3905,"lon":-54.1122},{"id":"BGY","name":"Il Caravaggio International Airport","city":"Bergamo","countryIso2":"IT","lat":45.6739,"lon":9.7042},{"id":"BHB","name":"Hancock County-Bar Harbor Airport","city":"Bar Harbor","countryIso2":"US","lat":44.45,"lon":-68.3615},{"id":"BHD","name":"George Best Belfast City Airport","city":"Belfast","countryIso2":"GB","lat":54.6181,"lon":-5.8725},{"id":"BHE","name":"Woodbourne Airport","city":"Woodbourne","countryIso2":"NZ","lat":-41.5183,"lon":173.87},{"id":"BHG","name":"Brus Laguna Airport","city":"Brus Laguna","countryIso2":"HN","lat":15.7631,"lon":-84.5436},{"id":"BHH","name":"Bisha Airport","city":"Bisha","countryIso2":"SA","lat":19.9844,"lon":42.6209},{"id":"BHI","name":"Comandante Espora Airport","city":"Bahia Blanca","countryIso2":"AR","lat":-38.725,"lon":-62.1693},{"id":"BHJ","name":"Bhuj Airport","city":"Bhuj","countryIso2":"IN","lat":23.2878,"lon":69.6702},{"id":"BHK","name":"Bukhara Airport","city":"Bukhara","countryIso2":"UZ","lat":39.775,"lon":64.4833},{"id":"BHM","name":"Birmingham-Shuttlesworth International Airport","city":"Birmingham","countryIso2":"US","lat":33.5629,"lon":-86.7535},{"id":"BHN","name":"Beihan Airport","city":"Beihan","countryIso2":"YE","lat":14.782,"lon":45.7201},{"id":"BHO","name":"Raja Bhoj International Airport","city":"Bhopal","countryIso2":"IN","lat":23.2875,"lon":77.3374},{"id":"BHP","name":"Bhojpur Airport","city":"Bhojpur","countryIso2":"NP","lat":27.1474,"lon":87.0508},{"id":"BHQ","name":"Broken Hill Airport","city":"Broken Hill","countryIso2":"AU","lat":-32.0014,"lon":141.472},{"id":"BHR","name":"Bharatpur Airport","city":"Bharatpur","countryIso2":"NP","lat":27.6781,"lon":84.4294},{"id":"BHS","name":"Bathurst Airport","city":"Bathurst","countryIso2":"AU","lat":-33.4094,"lon":149.652},{"id":"BHU","name":"Bhavnagar Airport","city":"Bhaunagar","countryIso2":"IN","lat":21.7522,"lon":72.1852},{"id":"BHV","name":"Bahawalpur Airport","city":"Bahawalpur","countryIso2":"PK","lat":29.3481,"lon":71.718},{"id":"BHX","name":"Birmingham International Airport","city":"Birmingham","countryIso2":"GB","lat":52.4539,"lon":-1.748},{"id":"BHY","name":"Beihai Airport","city":"Beihai","countryIso2":"CN","lat":21.5394,"lon":109.294},{"id":"BIA","name":"Bastia-Poretta Airport","city":"Bastia","countryIso2":"FR","lat":42.5527,"lon":9.4837},{"id":"BID","name":"Block Island State Airport","city":"Block Island","countryIso2":"US","lat":41.1681,"lon":-71.5778},{"id":"BIF","name":"Biggs Army Air Field (Fort Bliss)","city":"El Paso","countryIso2":"US","lat":31.8495,"lon":-106.38},{"id":"BIG","name":"Allen Army Airfield","city":"Delta Junction","countryIso2":"US","lat":63.9945,"lon":-145.722},{"id":"BIH","name":"Eastern Sierra Regional Airport","city":"Bishop","countryIso2":"US","lat":37.3731,"lon":-118.364},{"id":"BIK","name":"Frans Kaisiepo Airport","city":"Biak","countryIso2":"ID","lat":-1.19,"lon":136.108},{"id":"BIL","name":"Billings Logan International Airport","city":"Billings","countryIso2":"US","lat":45.8077,"lon":-108.543},{"id":"BIM","name":"South Bimini Airport","city":"Alice Town","countryIso2":"BS","lat":25.6999,"lon":-79.2647},{"id":"BIN","name":"Bamiyan Airport","city":"Bamyan","countryIso2":"AF","lat":34.817,"lon":67.817},{"id":"BIO","name":"Bilbao Airport","city":"Bilbao","countryIso2":"ES","lat":43.3011,"lon":-2.9106},{"id":"BIQ","name":"Biarritz-Anglet-Bayonne Airport","city":"Biarritz-bayonne","countryIso2":"FR","lat":43.4683,"lon":-1.5311},{"id":"BIR","name":"Biratnagar Airport","city":"Biratnagar","countryIso2":"NP","lat":26.4815,"lon":87.264},{"id":"BIS","name":"Bismarck Municipal Airport","city":"Bismarck","countryIso2":"US","lat":46.7727,"lon":-100.746},{"id":"BIU","name":"Bildudalur Airport","city":"Bildudalur","countryIso2":"IS","lat":65.6413,"lon":-23.5462},{"id":"BIV","name":"Tulip City Airport","city":"Holland","countryIso2":"US","lat":42.7429,"lon":-86.1074},{"id":"BIX","name":"Keesler Air Force Base","city":"Biloxi","countryIso2":"US","lat":30.4104,"lon":-88.9244},{"id":"BIY","name":"Bisho Airport","city":"Bisho","countryIso2":"ZA","lat":-32.8971,"lon":27.2791},{"id":"BJA","name":"Soummam Airport","city":"Bejaja","countryIso2":"DZ","lat":36.712,"lon":5.0699},{"id":"BJB","name":"Bojnord Airport","city":"Bojnourd","countryIso2":"IR","lat":37.493,"lon":57.3082},{"id":"BJC","name":"Rocky Mountain Metropolitan Airport","city":"Broomfield-CO","countryIso2":"US","lat":39.9088,"lon":-105.117},{"id":"BJF","name":"Båtsfjord Airport","city":"Batsfjord","countryIso2":"NO","lat":70.6005,"lon":29.6914},{"id":"BJH","name":"Bajhang Airport","city":"Bajhang","countryIso2":"NP","lat":29.539,"lon":81.1854},{"id":"BJI","name":"Bemidji Regional Airport","city":"Bemidji","countryIso2":"US","lat":47.5094,"lon":-94.9337},{"id":"BJL","name":"Banjul International Airport","city":"Banjul","countryIso2":"GM","lat":13.338,"lon":-16.6522},{"id":"BJM","name":"Bujumbura International Airport","city":"Bujumbura","countryIso2":"BI","lat":-3.324,"lon":29.3185},{"id":"BJO","name":"Bermejo Airport","city":"Bermejo","countryIso2":"BO","lat":-22.7733,"lon":-64.3129},{"id":"BJP","name":"Estadual Arthur Siqueira Airport","city":"Braganca Paulista","countryIso2":"BR","lat":-22.9792,"lon":-46.5375},{"id":"BJR","name":"Bahir Dar Airport","city":"Bahar Dar","countryIso2":"ET","lat":11.6081,"lon":37.3216},{"id":"BJU","name":"Bajura Airport","city":"Bajura","countryIso2":"NP","lat":29.502,"lon":81.669},{"id":"BJV","name":"Milas Bodrum International Airport","city":"Bodrum","countryIso2":"TR","lat":37.2506,"lon":27.6643},{"id":"BJX","name":"Del Bajío International Airport","city":"Del Bajio","countryIso2":"MX","lat":20.9935,"lon":-101.481},{"id":"BJY","name":"Batajnica Air Base","city":"Batajnica","countryIso2":"RS","lat":44.9353,"lon":20.2575},{"id":"BJZ","name":"Badajoz Airport","city":"Badajoz","countryIso2":"ES","lat":38.8913,"lon":-6.8213},{"id":"BKA","name":"Bykovo Airport","city":"Moscow","countryIso2":"RU","lat":55.6172,"lon":38.06},{"id":"BKC","name":"Buckland Airport","city":"Buckland","countryIso2":"US","lat":65.9816,"lon":-161.149},{"id":"BKD","name":"Stephens County Airport","city":"Breckenridge","countryIso2":"US","lat":32.719,"lon":-98.891},{"id":"BKE","name":"Baker City Municipal Airport","city":"Baker City","countryIso2":"US","lat":44.8373,"lon":-117.809},{"id":"BKF","name":"Buckley Air Force Base","city":"Buckley","countryIso2":"US","lat":39.7017,"lon":-104.752},{"id":"BKH","name":"Barking Sands Airport","city":"Barking Sands","countryIso2":"US","lat":22.0228,"lon":-159.785},{"id":"BKI","name":"Kota Kinabalu International Airport","city":"Kota Kinabalu","countryIso2":"MY","lat":5.9372,"lon":116.051},{"id":"BKK","name":"Suvarnabhumi Airport","city":"Bangkok","countryIso2":"TH","lat":13.6811,"lon":100.747},{"id":"BKL","name":"Burke Lakefront Airport","city":"Cleveland","countryIso2":"US","lat":41.5175,"lon":-81.6833},{"id":"BKM","name":"Bakalalan Airport","city":"Bakalalan","countryIso2":"MY","lat":3.974,"lon":115.618},{"id":"BKO","name":"Senou Airport","city":"Bamako","countryIso2":"ML","lat":12.5335,"lon":-7.9499},{"id":"BKQ","name":"Blackall Airport","city":"Blackall","countryIso2":"AU","lat":-24.4278,"lon":145.429},{"id":"BKS","name":"Fatmawati Soekarno Airport","city":"Bengkulu","countryIso2":"ID","lat":-3.8637,"lon":102.339},{"id":"BKW","name":"Raleigh County Memorial Airport","city":"Beckley","countryIso2":"US","lat":37.7873,"lon":-81.1242},{"id":"BKY","name":"Bukavu Kavumu Airport","city":"Bukavu/kavumu","countryIso2":"CD","lat":-2.309,"lon":28.8088},{"id":"BKZ","name":"Bukoba Airport","city":"Bukoba","countryIso2":"TZ","lat":-1.332,"lon":31.8212},{"id":"BLA","name":"General Jose Antonio Anzoategui International Airport","city":"Barcelona","countryIso2":"VE","lat":10.1071,"lon":-64.6892},{"id":"BLB","name":"Panama Pacific International Airport","city":"Howard","countryIso2":"PA","lat":8.9148,"lon":-79.5996},{"id":"BLE","name":"Borlange Airport","city":"Borlange","countryIso2":"SE","lat":60.422,"lon":15.5152},{"id":"BLF","name":"Mercer County Airport","city":"Bluefield","countryIso2":"US","lat":37.2958,"lon":-81.2077},{"id":"BLG","name":"Belaga Airport","city":"Belaga","countryIso2":"MY","lat":2.65,"lon":113.767},{"id":"BLH","name":"Blythe Airport","city":"Blythe","countryIso2":"US","lat":33.6192,"lon":-114.717},{"id":"BLI","name":"Bellingham International Airport","city":"Bellingham","countryIso2":"US","lat":48.7928,"lon":-122.538},{"id":"BLJ","name":"Batna Airport","city":"Batna","countryIso2":"DZ","lat":35.7521,"lon":6.3086},{"id":"BLK","name":"Blackpool International Airport","city":"Blackpool","countryIso2":"GB","lat":53.7717,"lon":-3.0286},{"id":"BLL","name":"Billund Airport","city":"Billund","countryIso2":"DK","lat":55.7403,"lon":9.1518},{"id":"BLN","name":"Benalla Airport","city":"","countryIso2":"AU","lat":-36.5519,"lon":146.007},{"id":"BLQ","name":"Bologna Guglielmo Marconi Airport","city":"Bologna","countryIso2":"IT","lat":44.5354,"lon":11.2887},{"id":"BLR","name":"Kempegowda International Airport","city":"Bangalore","countryIso2":"IN","lat":13.1979,"lon":77.7063},{"id":"BLT","name":"Blackwater Airport","city":"Blackwater","countryIso2":"AU","lat":-23.6031,"lon":148.807},{"id":"BLV","name":"Scott AFB/Midamerica Airport","city":"Belleville","countryIso2":"US","lat":38.5452,"lon":-89.8352},{"id":"BLZ","name":"Chileka International Airport","city":"Blantyre","countryIso2":"MW","lat":-15.6791,"lon":34.974},{"id":"BMA","name":"Stockholm-Bromma Airport","city":"Stockholm","countryIso2":"SE","lat":59.3544,"lon":17.9417},{"id":"BMB","name":"Bumbar Airport","city":"Bumba","countryIso2":"CD","lat":2.1828,"lon":22.4817},{"id":"BMC","name":"Brigham City Airport","city":"Brigham City","countryIso2":"US","lat":41.5524,"lon":-112.062},{"id":"BMD","name":"Belo sur Tsiribihina Airport","city":"Belo sur Tsiribihina","countryIso2":"MG","lat":-19.6867,"lon":44.5419},{"id":"BME","name":"Broome International Airport","city":"Broome","countryIso2":"AU","lat":-17.9447,"lon":122.232},{"id":"BMG","name":"Monroe County Airport","city":"Bloomington","countryIso2":"US","lat":39.146,"lon":-86.6167},{"id":"BMI","name":"Central Illinois Regional Airport at Bloomington-Normal","city":"Bloomington","countryIso2":"US","lat":40.4771,"lon":-88.9159},{"id":"BMK","name":"Borkum Airport","city":"Borkum","countryIso2":"DE","lat":53.5964,"lon":6.7092},{"id":"BMM","name":"Bitam Airport","city":"Bitam","countryIso2":"GA","lat":2.0756,"lon":11.4932},{"id":"BMO","name":"Banmaw Airport","city":"Banmaw","countryIso2":"MM","lat":24.269,"lon":97.2462},{"id":"BMP","name":"Brampton Island Airport","city":"Brampton Island","countryIso2":"AU","lat":-20.8033,"lon":149.27},{"id":"BMQ","name":"Burnet Municipal Kate Craddock Field","city":"Bamburi","countryIso2":"KE","lat":30.7389,"lon":-98.2386},{"id":"BMT","name":"Beaumont Municipal Airport","city":"Beaumont","countryIso2":"US","lat":30.0707,"lon":-94.2158},{"id":"BMU","name":"Muhammad Salahuddin Airport","city":"Bima","countryIso2":"ID","lat":-8.5396,"lon":118.687},{"id":"BMV","name":"Buon Ma Thuot Airport","city":"Buonmethuot","countryIso2":"VN","lat":12.6683,"lon":108.12},{"id":"BMW","name":"Bordj Badji Mokhtar Airport","city":"Bordj Badji Mokhtar","countryIso2":"DZ","lat":21.375,"lon":0.9239},{"id":"BMX","name":"Big Mountain Airport","city":"Big Mountain","countryIso2":"US","lat":59.3612,"lon":-155.259},{"id":"BMY","name":"Île Art - Waala Airport","city":"Waala","countryIso2":"NC","lat":-19.7206,"lon":163.661},{"id":"BNA","name":"Nashville International Airport","city":"Nashville","countryIso2":"US","lat":36.1245,"lon":-86.6782},{"id":"BNB","name":"Boende Airport","city":"Boende","countryIso2":"CD","lat":-0.217,"lon":20.85},{"id":"BNC","name":"Beni Airport","city":"Beni","countryIso2":"CD","lat":0.575,"lon":29.4739},{"id":"BND","name":"Bandar Abbas International Airport","city":"Bandar Abbas","countryIso2":"IR","lat":27.2183,"lon":56.3778},{"id":"BNE","name":"Brisbane International Airport","city":"Brisbane","countryIso2":"AU","lat":-27.3842,"lon":153.117},{"id":"BNG","name":"Banning Municipal Airport","city":"Banning","countryIso2":"US","lat":33.9231,"lon":-116.851},{"id":"BNI","name":"Benin Airport","city":"Benin","countryIso2":"NG","lat":6.317,"lon":5.5995},{"id":"BNK","name":"Ballina Byron Gateway Airport","city":"Ballina Byron Bay","countryIso2":"AU","lat":-28.8339,"lon":153.562},{"id":"BNN","name":"Brønnøysund Airport","city":"Bronnoysund","countryIso2":"NO","lat":65.4611,"lon":12.2175},{"id":"BNP","name":"Bannu Airport","city":"Bannu","countryIso2":"PK","lat":32.9729,"lon":70.5279},{"id":"BNS","name":"Barinas Airport","city":"Barinas","countryIso2":"VE","lat":8.6196,"lon":-70.2208},{"id":"BNU","name":"Blumenau Airport","city":"BLUMENAU","countryIso2":"BR","lat":-26.8306,"lon":-49.0903},{"id":"BNX","name":"Banja Luka International Airport","city":"Banja Luka","countryIso2":"BA","lat":44.9414,"lon":17.2975},{"id":"BOA","name":"Boma Airport","city":"Boma","countryIso2":"CD","lat":-5.854,"lon":13.064},{"id":"BOB","name":"Bora Bora Airport","city":"Bora Bora","countryIso2":"PF","lat":-16.4444,"lon":-151.751},{"id":"BOC","name":"Bocas Del Toro International Airport","city":"Bocas Del Toro","countryIso2":"PA","lat":9.3408,"lon":-82.2508},{"id":"BOD","name":"Bordeaux-Mérignac Airport","city":"Bordeaux","countryIso2":"FR","lat":44.8283,"lon":-0.7156},{"id":"BOG","name":"El Dorado International Airport","city":"Bogota","countryIso2":"CO","lat":4.7016,"lon":-74.1469},{"id":"BOH","name":"Bournemouth Airport","city":"Bournemouth","countryIso2":"GB","lat":50.78,"lon":-1.8425},{"id":"BOI","name":"Boise Air Terminal/Gowen field","city":"Boise","countryIso2":"US","lat":43.5644,"lon":-116.223},{"id":"BOJ","name":"Burgas Airport","city":"Bourgas","countryIso2":"BG","lat":42.5696,"lon":27.5152},{"id":"BOM","name":"Chhatrapati Shivaji International Airport","city":"Mumbai","countryIso2":"IN","lat":19.0887,"lon":72.8679},{"id":"BOO","name":"Bodø Airport","city":"Bodo","countryIso2":"NO","lat":67.2692,"lon":14.3653},{"id":"BOR","name":"Fontaine Airport","city":"Belfort","countryIso2":"FR","lat":47.6556,"lon":7.0108},{"id":"BOS","name":"General Edward Lawrence Logan International Airport","city":"Boston","countryIso2":"US","lat":42.3643,"lon":-71.0052},{"id":"BOU","name":"Bourges Airport","city":"Bourges","countryIso2":"FR","lat":47.0581,"lon":2.3703},{"id":"BOW","name":"Bartow Municipal Airport","city":"Bartow","countryIso2":"US","lat":27.9434,"lon":-81.7834},{"id":"BOX","name":"Borroloola Airport","city":"Borroloola","countryIso2":"AU","lat":-16.0753,"lon":136.302},{"id":"BOY","name":"Bobo Dioulasso Airport","city":"Bobo-dioulasso","countryIso2":"BF","lat":11.1601,"lon":-4.331},{"id":"BPC","name":"Bamenda Airport","city":"Bamenda","countryIso2":"CM","lat":6.0392,"lon":10.1226},{"id":"BPE","name":"Qinhuangdao Beidaihe Airport","city":"Bagan","countryIso2":"MM","lat":39.6664,"lon":119.0589},{"id":"BPH","name":"Bislig Airport","city":"","countryIso2":"PH","lat":8.1959,"lon":126.322},{"id":"BPI","name":"Miley Memorial Field","city":"Big Piney","countryIso2":"US","lat":42.5851,"lon":-110.111},{"id":"BPL","name":"Alashankou Bole (Bortala) airport","city":"Bole","countryIso2":"CN","lat":44.895,"lon":82.3},{"id":"BPM","name":"Begumpet Airport","city":"Hyderabad","countryIso2":"IN","lat":17.4531,"lon":78.4676},{"id":"BPN","name":"Sultan Aji Muhamad Sulaiman Airport","city":"Balikpapan","countryIso2":"ID","lat":-1.2683,"lon":116.894},{"id":"BPR","name":"Borongan Airport","city":"Borongan","countryIso2":"PH","lat":11.6743,"lon":125.479},{"id":"BPS","name":"Porto Seguro Airport","city":"Porto Seguro","countryIso2":"BR","lat":-16.4386,"lon":-39.0809},{"id":"BPT","name":"Southeast Texas Regional Airport","city":"Beaumont","countryIso2":"US","lat":29.9508,"lon":-94.0207},{"id":"BPX","name":"Qamdo Bangda Airport","city":"Bangda","countryIso2":"CN","lat":30.5536,"lon":97.1083},{"id":"BPY","name":"Besalampy Airport","city":"Besalampy","countryIso2":"MG","lat":-16.7445,"lon":44.4825},{"id":"BQB","name":"Busselton Regional Airport","city":"Brusselton","countryIso2":"AU","lat":-33.6884,"lon":115.4016},{"id":"BQE","name":"Bubaque Airport","city":"Bubaque","countryIso2":"GW","lat":11.2974,"lon":-15.8381},{"id":"BQH","name":"London Biggin Hill Airport","city":"Biggin Hill","countryIso2":"GB","lat":51.3308,"lon":0.0325},{"id":"BQK","name":"Brunswick Golden Isles Airport","city":"Brunswick","countryIso2":"US","lat":31.2588,"lon":-81.4665},{"id":"BQL","name":"Boulia Airport","city":"Boulia","countryIso2":"AU","lat":-22.9133,"lon":139.9},{"id":"BQN","name":"Rafael Hernandez Airport","city":"Aguadilla","countryIso2":"PR","lat":18.4949,"lon":-67.1294},{"id":"BQS","name":"Ignatyevo Airport","city":"Blagoveschensk","countryIso2":"RU","lat":50.4254,"lon":127.412},{"id":"BQT","name":"Brest Airport","city":"Brest","countryIso2":"BY","lat":52.1083,"lon":23.8981},{"id":"BQU","name":"J F Mitchell Airport","city":"Bequia","countryIso2":"VC","lat":12.9884,"lon":-61.262},{"id":"BRA","name":"Barreiras Airport","city":"Barreiras","countryIso2":"BR","lat":-12.0789,"lon":-45.009},{"id":"BRC","name":"San Carlos De Bariloche Airport","city":"San Carlos De Bariloche","countryIso2":"AR","lat":-41.1512,"lon":-71.1575},{"id":"BRD","name":"Brainerd Lakes Regional Airport","city":"Brainerd","countryIso2":"US","lat":46.3983,"lon":-94.1381},{"id":"BRE","name":"Bremen Airport","city":"Bremen","countryIso2":"DE","lat":53.0475,"lon":8.7867},{"id":"BRI","name":"Bari Karol Wojtyła Airport","city":"Bari","countryIso2":"IT","lat":41.1389,"lon":16.7606},{"id":"BRK","name":"Bourke Airport","city":"Bourke","countryIso2":"AU","lat":-30.0392,"lon":145.952},{"id":"BRL","name":"Southeast Iowa Regional Airport","city":"Burlington","countryIso2":"US","lat":40.7832,"lon":-91.1255},{"id":"BRM","name":"Barquisimeto International Airport","city":"Barquisimeto","countryIso2":"VE","lat":10.0427,"lon":-69.3586},{"id":"BRN","name":"Bern Belp Airport","city":"Bern","countryIso2":"CH","lat":46.9141,"lon":7.4971},{"id":"BRO","name":"Brownsville South Padre Island International Airport","city":"Brownsville","countryIso2":"US","lat":25.9068,"lon":-97.4259},{"id":"BRQ","name":"Brno-Tuřany Airport","city":"Brno","countryIso2":"CZ","lat":49.1513,"lon":16.6944},{"id":"BRR","name":"Barra Airport","city":"Barra","countryIso2":"GB","lat":57.0228,"lon":-7.4431},{"id":"BRS","name":"Bristol Airport","city":"Bristol","countryIso2":"GB","lat":51.3827,"lon":-2.7191},{"id":"BRT","name":"Bathurst Island Airport","city":"Bathurst Island","countryIso2":"AU","lat":-11.7692,"lon":130.62},{"id":"BRU","name":"Brussels Airport","city":"Brussels","countryIso2":"BE","lat":50.9014,"lon":4.4844},{"id":"BRV","name":"Bremerhaven Airport","city":"Bremerhaven","countryIso2":"DE","lat":53.5069,"lon":8.5728},{"id":"BRW","name":"Wiley Post Will Rogers Memorial Airport","city":"Barrow","countryIso2":"US","lat":71.2854,"lon":-156.766},{"id":"BRX","name":"Maria Montez International Airport","city":"Barahona","countryIso2":"DO","lat":18.2515,"lon":-71.1204},{"id":"BSA","name":"Bosaso Airport","city":"Bosaso","countryIso2":"SO","lat":11.2753,"lon":49.1494},{"id":"BSB","name":"Presidente Juscelino Kubistschek International Airport","city":"Brasilia","countryIso2":"BR","lat":-15.8692,"lon":-47.9208},{"id":"BSC","name":"José Celestino Mutis Airport","city":"Bahia Solano","countryIso2":"CO","lat":6.2029,"lon":-77.3947},{"id":"BSF","name":"Bradshaw Army Airfield","city":"Bradshaw Field","countryIso2":"US","lat":19.7601,"lon":-155.554},{"id":"BSG","name":"Bata Airport","city":"Bata","countryIso2":"GQ","lat":1.9055,"lon":9.8057},{"id":"BSJ","name":"Bairnsdale Airport","city":"Bairnsdale","countryIso2":"AU","lat":-37.8875,"lon":147.568},{"id":"BSK","name":"Biskra Airport","city":"Biskra","countryIso2":"DZ","lat":34.7933,"lon":5.7382},{"id":"BSL","name":"EuroAirport Basel-Mulhouse-Freiburg Airport","city":"Mulhouse","countryIso2":"FR","lat":47.59,"lon":7.5292},{"id":"BSO","name":"Basco Airport","city":"Basco","countryIso2":"PH","lat":20.4513,"lon":121.98},{"id":"BSR","name":"Basrah International Airport","city":"Basrah","countryIso2":"IQ","lat":30.5491,"lon":47.6621},{"id":"BST","name":"Bost Airport","city":"Lashkar Gah","countryIso2":"AF","lat":31.5597,"lon":64.365},{"id":"BSU","name":"Basankusu Airport","city":"Basankusu","countryIso2":"CD","lat":1.2247,"lon":19.7889},{"id":"BSX","name":"Pathein Airport","city":"Pathein","countryIso2":"MM","lat":16.8152,"lon":94.7799},{"id":"BTE","name":"Sherbro International Airport","city":"Bonthe","countryIso2":"SL","lat":7.5324,"lon":-12.5189},{"id":"BTH","name":"Hang Nadim International Airport","city":"Batam","countryIso2":"ID","lat":1.121,"lon":104.119},{"id":"BTI","name":"Barter Island LRRS Airport","city":"Barter Island","countryIso2":"US","lat":70.134,"lon":-143.582},{"id":"BTJ","name":"Sultan Iskandar Muda International Airport","city":"Banda Aceh","countryIso2":"ID","lat":5.5229,"lon":95.4206},{"id":"BTK","name":"Bratsk Airport","city":"Bratsk","countryIso2":"RU","lat":56.3706,"lon":101.698},{"id":"BTL","name":"W K Kellogg Airport","city":"Battle Creek","countryIso2":"US","lat":42.3073,"lon":-85.2515},{"id":"BTM","name":"Bert Mooney Airport","city":"Butte","countryIso2":"US","lat":45.9548,"lon":-112.497},{"id":"BTR","name":"Baton Rouge Metropolitan, Ryan Field","city":"Baton Rouge","countryIso2":"US","lat":30.5332,"lon":-91.1496},{"id":"BTS","name":"M. R. Štefánik Airport","city":"Bratislava","countryIso2":"SK","lat":48.1702,"lon":17.2127},{"id":"BTT","name":"Bettles Airport","city":"Bettles","countryIso2":"US","lat":66.9139,"lon":-151.529},{"id":"BTU","name":"Bintulu Airport","city":"Bintulu","countryIso2":"MY","lat":3.1239,"lon":113.02},{"id":"BTV","name":"Burlington International Airport","city":"Burlington","countryIso2":"US","lat":44.4719,"lon":-73.1533},{"id":"BTZ","name":"Bursa Airport","city":"Bursa","countryIso2":"TR","lat":40.2333,"lon":29.0092},{"id":"BUA","name":"Buka Airport","city":"Buka Island","countryIso2":"PG","lat":-5.4223,"lon":154.673},{"id":"BUC","name":"Burketown Airport","city":"Burketown","countryIso2":"AU","lat":-17.7486,"lon":139.534},{"id":"BUD","name":"Budapest Ferenc Liszt International Airport","city":"Budapest","countryIso2":"HU","lat":47.4369,"lon":19.2556},{"id":"BUF","name":"Buffalo Niagara International Airport","city":"Buffalo","countryIso2":"US","lat":42.9405,"lon":-78.7322},{"id":"BUG","name":"Benguela Airport","city":"Benguela","countryIso2":"AO","lat":-12.609,"lon":13.4037},{"id":"BUI","name":"Bokondini Airport","city":"Bokondini-Papua Island","countryIso2":"ID","lat":-3.6822,"lon":138.6755},{"id":"BUN","name":"Gerardo Tobar López Airport","city":"Buenaventura","countryIso2":"CO","lat":3.8196,"lon":-76.9898},{"id":"BUO","name":"Burao Airport","city":"Burao","countryIso2":"SO","lat":9.5275,"lon":45.5549},{"id":"BUQ","name":"Joshua Mqabuko Nkomo International Airport","city":"Bulawayo","countryIso2":"ZW","lat":-20.0174,"lon":28.6179},{"id":"BUR","name":"Bob Hope Airport","city":"Burbank","countryIso2":"US","lat":34.2007,"lon":-118.359},{"id":"BUS","name":"Batumi International Airport","city":"Batumi","countryIso2":"GE","lat":41.6103,"lon":41.5997},{"id":"BUT","name":"Bathpalathang Airport","city":"Jakar","countryIso2":"BT","lat":27.5622,"lon":90.7471},{"id":"BUU","name":"Burlington Municipal Airport","city":"Burlington","countryIso2":"US","lat":42.6907,"lon":-88.3046},{"id":"BUW","name":"Betoambari Airport","city":"Bau-Bau","countryIso2":"ID","lat":-5.4869,"lon":122.569},{"id":"BUX","name":"Bunia Airport","city":"Bunia","countryIso2":"CD","lat":1.5657,"lon":30.2208},{"id":"BUY","name":"Bunbury Airport","city":"Bunbury","countryIso2":"AU","lat":-33.3783,"lon":115.677},{"id":"BUZ","name":"Bushehr Airport","city":"Bushehr","countryIso2":"IR","lat":28.9448,"lon":50.8346},{"id":"BVA","name":"Paris Beauvais Tillé Airport","city":"Beauvais","countryIso2":"FR","lat":49.4544,"lon":2.1128},{"id":"BVB","name":"Atlas Brasil Cantanhede Airport","city":"Boa Vista","countryIso2":"BR","lat":2.8414,"lon":-60.6922},{"id":"BVC","name":"Rabil Airport","city":"Boa Vista","countryIso2":"CV","lat":16.1365,"lon":-22.8889},{"id":"BVE","name":"Toul Rosières Air Base","city":"Brive","countryIso2":"FR","lat":48.78,"lon":5.98},{"id":"BVG","name":"Berlevåg Airport","city":"Berlevag","countryIso2":"NO","lat":70.8714,"lon":29.0342},{"id":"BVH","name":"Brigadeiro Camarão Airport","city":"Vilhena","countryIso2":"BR","lat":-12.6944,"lon":-60.0983},{"id":"BVI","name":"Birdsville Airport","city":"Birdsville","countryIso2":"AU","lat":-25.8975,"lon":139.348},{"id":"BVS","name":"Breves Airport","city":"Breves","countryIso2":"BR","lat":-1.6365,"lon":-50.4436},{"id":"BVY","name":"Beverly Municipal Airport","city":"Beverly","countryIso2":"US","lat":42.5842,"lon":-70.9165},{"id":"BWA","name":"Gautam Buddha Airport","city":"Bhairawa","countryIso2":"NP","lat":27.5057,"lon":83.4163},{"id":"BWB","name":"Barrow Island Airport","city":"Barrow Island","countryIso2":"AU","lat":-20.8644,"lon":115.406},{"id":"BWE","name":"Braunschweig Wolfsburg Airport","city":"Braunschweig","countryIso2":"DE","lat":52.3192,"lon":10.5561},{"id":"BWF","name":"Barrow Walney Island Airport","city":"Barrow Island","countryIso2":"GB","lat":54.1286,"lon":-3.2675},{"id":"BWG","name":"Bowling Green Warren County Regional Airport","city":"Bowling Green","countryIso2":"US","lat":36.9645,"lon":-86.4197},{"id":"BWI","name":"Baltimore/Washington International Thurgood Marshall Airport","city":"Baltimore","countryIso2":"US","lat":39.1754,"lon":-76.6683},{"id":"BWK","name":"Bol Airport","city":"Brac","countryIso2":"HR","lat":43.2857,"lon":16.6797},{"id":"BWN","name":"Brunei International Airport","city":"Bandar Seri Begawan","countryIso2":"BN","lat":4.9442,"lon":114.928},{"id":"BWO","name":"Balakovo Airport","city":"Balakovo","countryIso2":"RU","lat":51.8583,"lon":47.7456},{"id":"BWQ","name":"Brewarrina Airport","city":"","countryIso2":"AU","lat":-29.9739,"lon":146.817},{"id":"BWT","name":"Wynyard Airport","city":"Burnie","countryIso2":"AU","lat":-40.9989,"lon":145.731},{"id":"BWU","name":"Sydney Bankstown Airport","city":"Sydney","countryIso2":"AU","lat":-33.9244,"lon":150.988},{"id":"BWW","name":"Las Brujas Airport","city":"Cayo Santa Maria","countryIso2":"CU","lat":22.6213,"lon":-79.1472},{"id":"BXB","name":"Babo Airport","city":"Babo","countryIso2":"ID","lat":-2.5322,"lon":133.439},{"id":"BXE","name":"Bakel Airport","city":"Bakel","countryIso2":"SN","lat":14.8473,"lon":-12.4683},{"id":"BXH","name":"Balkhash Airport","city":"Balkhash","countryIso2":"KZ","lat":46.8933,"lon":75.005},{"id":"BXK","name":"Buckeye Municipal Airport","city":"Buckeye","countryIso2":"US","lat":33.4204,"lon":-112.686},{"id":"BXN","name":"Imsık Airport","city":"Bodrum","countryIso2":"TR","lat":37.1401,"lon":27.6697},{"id":"BXO","name":"Buochs Airport","city":"Buochs","countryIso2":"CH","lat":46.9744,"lon":8.3969},{"id":"BXP","name":"Biała Podlaska Airfield","city":"Biała Podlaska","countryIso2":"PL","lat":52.0008,"lon":23.1325},{"id":"BXR","name":"Bam Airport","city":"Bam","countryIso2":"IR","lat":29.0842,"lon":58.45},{"id":"BXU","name":"Bancasi Airport","city":"Butuan","countryIso2":"PH","lat":8.9515,"lon":125.4788},{"id":"BYC","name":"Yacuiba Airport","city":"Yacuiba","countryIso2":"BO","lat":-21.9609,"lon":-63.6517},{"id":"BYH","name":"Arkansas International Airport","city":"Blytheville","countryIso2":"US","lat":35.9643,"lon":-89.944},{"id":"BYI","name":"Burley Municipal Airport","city":"Burley","countryIso2":"US","lat":42.5426,"lon":-113.772},{"id":"BYK","name":"Bouaké Airport","city":"Bouake","countryIso2":"CI","lat":7.7388,"lon":-5.0737},{"id":"BYM","name":"Carlos Manuel de Cespedes Airport","city":"Bayamo","countryIso2":"CU","lat":20.3964,"lon":-76.6214},{"id":"BYN","name":"Bayankhongor Airport","city":"Bayankhongor","countryIso2":"MN","lat":46.1633,"lon":100.704},{"id":"BYO","name":"Bonito Airport","city":"Bointo","countryIso2":"BR","lat":-21.2473,"lon":-56.4525},{"id":"BYS","name":"Bicycle Lake Army Air Field","city":"Fort Irwin","countryIso2":"US","lat":35.2805,"lon":-116.63},{"id":"BYT","name":"Bantry Aerodrome","city":"Bantry","countryIso2":"IE","lat":51.6686,"lon":-9.4842},{"id":"BYU","name":"Bayreuth Airport","city":"Bayreuth","countryIso2":"DE","lat":49.985,"lon":11.64},{"id":"BYY","name":"Bay City Municipal Airport","city":"Bay City","countryIso2":"US","lat":28.9733,"lon":-95.8635},{"id":"BZA","name":"San Pedro Airport","city":"Bonanza","countryIso2":"NI","lat":13.95,"lon":-84.6},{"id":"BZC","name":"Umberto Modiano Airport","city":"Buzios","countryIso2":"BR","lat":-22.771,"lon":-41.9629},{"id":"BZD","name":"Balranald Airport","city":"","countryIso2":"AU","lat":-34.6236,"lon":143.578},{"id":"BZE","name":"Philip S. W. Goldson International Airport","city":"Belize City","countryIso2":"BZ","lat":17.5391,"lon":-88.3082},{"id":"BZG","name":"Bydgoszcz Ignacy Jan Paderewski Airport","city":"Bydgoszcz","countryIso2":"PL","lat":53.0968,"lon":17.9777},{"id":"BZI","name":"Balıkesir Merkez Airport","city":"Balikesir","countryIso2":"TR","lat":39.6193,"lon":27.926},{"id":"BZK","name":"Bryansk Airport","city":"Bryansk","countryIso2":"RU","lat":53.2142,"lon":34.1764},{"id":"BZL","name":"Barisal Airport","city":"Barisal","countryIso2":"BD","lat":22.801,"lon":90.3012},{"id":"BZN","name":"Gallatin Field","city":"Bozeman","countryIso2":"US","lat":45.7775,"lon":-111.153},{"id":"BZO","name":"Bolzano Airport","city":"Bolzano","countryIso2":"IT","lat":46.4602,"lon":11.3264},{"id":"BZR","name":"Béziers-Vias Airport","city":"Beziers","countryIso2":"FR","lat":43.3235,"lon":3.3539},{"id":"BZV","name":"Maya-Maya Airport","city":"Brazzaville","countryIso2":"CG","lat":-4.2517,"lon":15.253},{"id":"BZY","name":"Balti International Airport","city":"Saltsy","countryIso2":"MD","lat":47.8381,"lon":27.7815},{"id":"BZZ","name":"RAF Brize Norton","city":"Brize Norton","countryIso2":"GB","lat":51.75,"lon":-1.5836},{"id":"CAB","name":"Cabinda Airport","city":"Cabinda","countryIso2":"AO","lat":-5.597,"lon":12.1884},{"id":"CAC","name":"Cascavel Airport","city":"Cascavel","countryIso2":"BR","lat":-25.0003,"lon":-53.5008},{"id":"CAE","name":"Columbia Metropolitan Airport","city":"Columbia","countryIso2":"US","lat":33.9388,"lon":-81.1195},{"id":"CAF","name":"Carauari Airport","city":"Carauari","countryIso2":"BR","lat":-4.8715,"lon":-66.8975},{"id":"CAG","name":"Cagliari Elmas Airport","city":"Cagliari","countryIso2":"IT","lat":39.2515,"lon":9.0543},{"id":"CAH","name":"Cà Mau Airport","city":"Ca Mau","countryIso2":"VN","lat":9.1777,"lon":105.1778},{"id":"CAI","name":"Cairo International Airport","city":"Cairo","countryIso2":"EG","lat":30.1219,"lon":31.4056},{"id":"CAJ","name":"Canaima Airport","city":"Canaima","countryIso2":"VE","lat":6.232,"lon":-62.8544},{"id":"CAK","name":"Akron Canton Regional Airport","city":"Akron","countryIso2":"US","lat":40.9161,"lon":-81.4422},{"id":"CAL","name":"Campbeltown Airport","city":"Campbeltown","countryIso2":"GB","lat":55.4372,"lon":-5.6864},{"id":"CAN","name":"Guangzhou Baiyun International Airport","city":"Guangzhou","countryIso2":"CN","lat":23.3924,"lon":113.299},{"id":"CAP","name":"Cap Haitien International Airport","city":"Cap Haitien","countryIso2":"HT","lat":19.733,"lon":-72.1947},{"id":"CAQ","name":"Juan H White Airport","city":"Caucasia","countryIso2":"CO","lat":7.9685,"lon":-75.1985},{"id":"CAR","name":"Caribou Municipal Airport","city":"Caribou","countryIso2":"US","lat":46.8715,"lon":-68.0179},{"id":"CAT","name":"New Bight Airport","city":"Cat Island","countryIso2":"BS","lat":24.3153,"lon":-75.4523},{"id":"CAU","name":"Caruaru Airport","city":"Caruaru","countryIso2":"BR","lat":-8.2824,"lon":-36.0135},{"id":"CAW","name":"Bartolomeu Lisandro Airport","city":"Campos","countryIso2":"BR","lat":-21.6983,"lon":-41.3017},{"id":"CAX","name":"Carlisle Airport","city":"Carlisle","countryIso2":"GB","lat":54.9375,"lon":-2.8092},{"id":"CAY","name":"Cayenne-Rochambeau Airport","city":"Cayenne","countryIso2":"GF","lat":4.8198,"lon":-52.3604},{"id":"CAZ","name":"Cobar Airport","city":"Cobar","countryIso2":"AU","lat":-31.5383,"lon":145.794},{"id":"CBB","name":"Jorge Wilsterman International Airport","city":"Cochabamba","countryIso2":"BO","lat":-17.4211,"lon":-66.1771},{"id":"CBE","name":"Greater Cumberland Regional Airport","city":"Cumberland","countryIso2":"US","lat":39.6154,"lon":-78.7609},{"id":"CBF","name":"Council Bluffs Municipal Airport","city":"Council Bluffs","countryIso2":"US","lat":41.2592,"lon":-95.7606},{"id":"CBG","name":"Cambridge Airport","city":"Cambridge","countryIso2":"GB","lat":52.205,"lon":0.175},{"id":"CBH","name":"Béchar Boudghene Ben Ali Lotfi Airport","city":"Béchar","countryIso2":"DZ","lat":31.6457,"lon":-2.2699},{"id":"CBL","name":"Aeropuerto \"General Tomas de Heres\". Ciudad Bolivar","city":"Ciudad Bolivar","countryIso2":"VE","lat":8.1222,"lon":-63.537},{"id":"CBM","name":"Columbus Air Force Base","city":"Colombus","countryIso2":"US","lat":33.6438,"lon":-88.4438},{"id":"CBN","name":"Penggung Airport","city":"Cirebon","countryIso2":"ID","lat":-6.7561,"lon":108.54},{"id":"CBO","name":"Awang Airport","city":"Cotabato","countryIso2":"PH","lat":7.1652,"lon":124.21},{"id":"CBQ","name":"Margaret Ekpo International Airport","city":"Calabar","countryIso2":"NG","lat":4.976,"lon":8.3472},{"id":"CBR","name":"Canberra International Airport","city":"Canberra","countryIso2":"AU","lat":-35.3069,"lon":149.195},{"id":"CBT","name":"Catumbela Airport","city":"Catumbela","countryIso2":"AO","lat":-12.4792,"lon":13.4869},{"id":"CBV","name":"Coban Airport","city":"Coban","countryIso2":"GT","lat":15.469,"lon":-90.4067},{"id":"CCB","name":"Cable Airport","city":"Upland","countryIso2":"US","lat":34.1116,"lon":-117.688},{"id":"CCC","name":"Jardines Del Rey Airport","city":"Cunagua","countryIso2":"CU","lat":22.461,"lon":-78.3284},{"id":"CCF","name":"Carcassonne Airport","city":"Carcassonne","countryIso2":"FR","lat":43.216,"lon":2.3063},{"id":"CCH","name":"Chile Chico Airport","city":"Chile Chico","countryIso2":"CL","lat":-46.5833,"lon":-71.6874},{"id":"CCI","name":"Concórdia Airport","city":"Concordia","countryIso2":"BR","lat":-27.1806,"lon":-52.0527},{"id":"CCJ","name":"Calicut International Airport","city":"Calicut","countryIso2":"IN","lat":11.1368,"lon":75.9553},{"id":"CCK","name":"Cocos (Keeling) Islands Airport","city":"Cocos Keeling Island","countryIso2":"CC","lat":-12.1883,"lon":96.8339},{"id":"CCL","name":"Chinchilla Airport","city":"Chinchilla","countryIso2":"AU","lat":-26.775,"lon":150.617},{"id":"CCM","name":"Diomício Freitas Airport","city":"Criciuma","countryIso2":"BR","lat":-28.7244,"lon":-49.4214},{"id":"CCN","name":"Chakcharan Airport","city":"Chaghcharan","countryIso2":"AF","lat":34.533,"lon":65.267},{"id":"CCO","name":"Newnan Coweta County Airport","city":"Newnan","countryIso2":"US","lat":33.3116,"lon":-84.7698},{"id":"CCP","name":"Carriel Sur Airport","city":"Concepcion","countryIso2":"CL","lat":-36.7727,"lon":-73.0631},{"id":"CCR","name":"Buchanan Field","city":"Concord","countryIso2":"US","lat":37.9897,"lon":-122.057},{"id":"CCS","name":"Simón Bolívar International Airport","city":"Caracas","countryIso2":"VE","lat":10.6031,"lon":-66.9906},{"id":"CCU","name":"Netaji Subhash Chandra Bose International Airport","city":"Kolkata","countryIso2":"IN","lat":22.6547,"lon":88.4467},{"id":"CCV","name":"Craig Cove Airport","city":"Craig Cove","countryIso2":"VU","lat":-16.265,"lon":167.924},{"id":"CCX","name":"Cáceres Airport","city":"Caceres","countryIso2":"BR","lat":-16.0436,"lon":-57.6299},{"id":"CCY","name":"Northeast Iowa Regional Airport","city":"Charles City","countryIso2":"US","lat":43.0726,"lon":-92.6108},{"id":"CCZ","name":"Chub Cay Airport","city":"Chub Cay","countryIso2":"BS","lat":25.4171,"lon":-77.8809},{"id":"CDA","name":"Cooinda Airport","city":"Cooinda","countryIso2":"AU","lat":-12.9033,"lon":132.532},{"id":"CDB","name":"Cold Bay Airport","city":"Cold Bay","countryIso2":"US","lat":55.2061,"lon":-162.725},{"id":"CDC","name":"Cedar City Regional Airport","city":"Cedar City","countryIso2":"US","lat":37.701,"lon":-113.099},{"id":"CDG","name":"Charles de Gaulle International Airport","city":"Paris","countryIso2":"FR","lat":49.0128,"lon":2.55},{"id":"CDJ","name":"Conceição do Araguaia Airport","city":"Conceicao Do Araguaia","countryIso2":"BR","lat":-8.3483,"lon":-49.3015},{"id":"CDN","name":"Woodward Field","city":"Camden","countryIso2":"US","lat":34.2836,"lon":-80.5649},{"id":"CDP","name":"Cuddapah Airport","city":"Cuddapah","countryIso2":"IN","lat":14.51,"lon":78.7728},{"id":"CDR","name":"Chadron Municipal Airport","city":"Chadron","countryIso2":"US","lat":42.8376,"lon":-103.095},{"id":"CDS","name":"Childress Municipal Airport","city":"Childress","countryIso2":"US","lat":34.4338,"lon":-100.288},{"id":"CDT","name":"Castellón-Costa Azahar Airport","city":"Castellón de la Plana","countryIso2":"ES","lat":40.2139,"lon":0.0733},{"id":"CDU","name":"Camden Airport","city":"Camden","countryIso2":"AU","lat":-34.0403,"lon":150.687},{"id":"CDV","name":"Merle K (Mudhole) Smith Airport","city":"Cordova","countryIso2":"US","lat":60.4918,"lon":-145.478},{"id":"CDW","name":"Essex County Airport","city":"Caldwell","countryIso2":"US","lat":40.8752,"lon":-74.2814},{"id":"CEB","name":"Mactan Cebu International Airport","city":"Cebu","countryIso2":"PH","lat":10.3075,"lon":123.979},{"id":"CEC","name":"Jack Mc Namara Field Airport","city":"Crescent City","countryIso2":"US","lat":41.7802,"lon":-124.237},{"id":"CED","name":"Ceduna Airport","city":"Ceduna","countryIso2":"AU","lat":-32.1306,"lon":133.71},{"id":"CEE","name":"Cherepovets Airport","city":"Cherepovets","countryIso2":"RU","lat":59.2736,"lon":38.0158},{"id":"CEF","name":"Westover ARB/Metropolitan Airport","city":"Chicopee Falls","countryIso2":"US","lat":42.194,"lon":-72.5348},{"id":"CEG","name":"Hawarden Airport","city":"Hawarden","countryIso2":"GB","lat":53.1781,"lon":-2.9778},{"id":"CEI","name":"Chiang Rai International Airport","city":"Chiang Rai","countryIso2":"TH","lat":19.9523,"lon":99.8829},{"id":"CEJ","name":"Chernihiv Shestovitsa Airport","city":"Chernigov","countryIso2":"UA","lat":51.4022,"lon":31.1583},{"id":"CEK","name":"Chelyabinsk Balandino Airport","city":"Chelyabinsk","countryIso2":"RU","lat":55.3058,"lon":61.5033},{"id":"CEM","name":"Central Airport","city":"Central","countryIso2":"US","lat":65.5738,"lon":-144.783},{"id":"CEN","name":"Ciudad Obregón International Airport","city":"Ciudad Obregon","countryIso2":"MX","lat":27.3926,"lon":-109.833},{"id":"CEQ","name":"Cannes-Mandelieu Airport","city":"Cannes","countryIso2":"FR","lat":43.542,"lon":6.9535},{"id":"CER","name":"Cherbourg-Maupertus Airport","city":"Cherbourg","countryIso2":"FR","lat":49.6501,"lon":-1.4703},{"id":"CES","name":"Cessnock Airport","city":"Cessnock","countryIso2":"AU","lat":-32.7875,"lon":151.342},{"id":"CET","name":"Cholet Le Pontreau Airport","city":"Cholet","countryIso2":"FR","lat":47.0821,"lon":-0.8771},{"id":"CEU","name":"Oconee County Regional Airport","city":"Clemson","countryIso2":"US","lat":34.6719,"lon":-82.8865},{"id":"CEW","name":"Bob Sikes Airport","city":"Crestview","countryIso2":"US","lat":30.7788,"lon":-86.5221},{"id":"CEZ","name":"Cortez Municipal Airport","city":"Cortez","countryIso2":"US","lat":37.303,"lon":-108.628},{"id":"CFB","name":"Cabo Frio Airport","city":"Cabo Frio","countryIso2":"BR","lat":-22.9217,"lon":-42.0743},{"id":"CFC","name":"Caçador Airport","city":"Cacador","countryIso2":"BR","lat":-26.7884,"lon":-50.9398},{"id":"CFD","name":"Coulter Field","city":"Bryan","countryIso2":"US","lat":30.7157,"lon":-96.3314},{"id":"CFE","name":"Clermont-Ferrand Auvergne Airport","city":"Clermont-Ferrand","countryIso2":"FR","lat":45.7867,"lon":3.1692},{"id":"CFG","name":"Jaime Gonzalez Airport","city":"Cienfuegos","countryIso2":"CU","lat":22.15,"lon":-80.4142},{"id":"CFN","name":"Donegal Airport","city":"Dongloe","countryIso2":"IE","lat":55.0442,"lon":-8.341},{"id":"CFO","name":"Confresa Airport","city":"Confresa","countryIso2":"BR","lat":-10.6344,"lon":-51.5636},{"id":"CFR","name":"Caen-Carpiquet Airport","city":"Caen","countryIso2":"FR","lat":49.1733,"lon":-0.45},{"id":"CFS","name":"Coffs Harbour Airport","city":"Coff's Harbour","countryIso2":"AU","lat":-30.3206,"lon":153.116},{"id":"CFU","name":"Ioannis Kapodistrias International Airport","city":"Kerkyra/corfu","countryIso2":"GR","lat":39.6019,"lon":19.9117},{"id":"CFV","name":"Coffeyville Municipal Airport","city":"Coffeyville","countryIso2":"US","lat":37.094,"lon":-95.5719},{"id":"CGB","name":"Marechal Rondon Airport","city":"Cuiaba","countryIso2":"BR","lat":-15.6529,"lon":-56.1167},{"id":"CGC","name":"Crystal River Airport","city":"Crystal River","countryIso2":"US","lat":28.8673,"lon":-82.5713},{"id":"CGD","name":"Changde Airport","city":"Changde","countryIso2":"CN","lat":28.9189,"lon":111.64},{"id":"CGF","name":"Cuyahoga County Airport","city":"Richmond Heights","countryIso2":"US","lat":41.5651,"lon":-81.4864},{"id":"CGH","name":"Congonhas Airport","city":"Sao Paulo","countryIso2":"BR","lat":-23.6261,"lon":-46.6564},{"id":"CGI","name":"Cape Girardeau Regional Airport","city":"Cape Girardeau","countryIso2":"US","lat":37.2253,"lon":-89.5708},{"id":"CGK","name":"Soekarno-Hatta International Airport","city":"Jakarta","countryIso2":"ID","lat":-6.1256,"lon":106.656},{"id":"CGM","name":"Camiguin Airport","city":"Camiguin","countryIso2":"PH","lat":9.2535,"lon":124.707},{"id":"CGN","name":"Cologne Bonn Airport","city":"Cologne","countryIso2":"DE","lat":50.8659,"lon":7.1427},{"id":"CGO","name":"Zhengzhou Xinzheng International Airport","city":"Zhengzhou","countryIso2":"CN","lat":34.5197,"lon":113.841},{"id":"CGP","name":"Shah Amanat International Airport","city":"Chittagong","countryIso2":"BD","lat":22.2496,"lon":91.8133},{"id":"CGQ","name":"Longjia Airport","city":"Changchun","countryIso2":"CN","lat":43.9962,"lon":125.685},{"id":"CGR","name":"Campo Grande Airport","city":"Campo Grande","countryIso2":"BR","lat":-20.4687,"lon":-54.6725},{"id":"CGX","name":"Chicago Meigs Airport","city":"Chicago","countryIso2":"US","lat":41.8588,"lon":-87.6079},{"id":"CGY","name":"Cagayan De Oro Airport","city":"Ladag","countryIso2":"PH","lat":8.4156,"lon":124.611},{"id":"CGZ","name":"Casa Grande Municipal Airport","city":"Casa Grande","countryIso2":"US","lat":32.9549,"lon":-111.767},{"id":"CHA","name":"Lovell Field","city":"Chattanooga","countryIso2":"US","lat":35.0353,"lon":-85.2038},{"id":"CHC","name":"Christchurch International Airport","city":"Christchurch","countryIso2":"NZ","lat":-43.4894,"lon":172.532},{"id":"CHG","name":"Chaoyang Airport","city":"Chaoyang","countryIso2":"CN","lat":41.5381,"lon":120.435},{"id":"CHH","name":"Chachapoyas Airport","city":"Chachapoyas","countryIso2":"PE","lat":-6.2018,"lon":-77.8561},{"id":"CHM","name":"Teniente FAP Jaime A De Montreuil Morales Airport","city":"Chimbote","countryIso2":"PE","lat":-9.1496,"lon":-78.5238},{"id":"CHN","name":"Jeon Ju Airport","city":"Jhunju","countryIso2":"KR","lat":35.8784,"lon":127.12},{"id":"CHO","name":"Charlottesville Albemarle Airport","city":"Charlottesville VA","countryIso2":"US","lat":38.1386,"lon":-78.4529},{"id":"CHQ","name":"Chania International Airport","city":"Chania","countryIso2":"GR","lat":35.5317,"lon":24.1497},{"id":"CHR","name":"Châteauroux-Déols \"Marcel Dassault\" Airport","city":"Chateauroux","countryIso2":"FR","lat":46.8603,"lon":1.7211},{"id":"CHS","name":"Charleston Air Force Base-International Airport","city":"Charleston","countryIso2":"US","lat":32.8986,"lon":-80.0405},{"id":"CHT","name":"Chatham Islands-Tuuta Airport","city":"Chatham Island","countryIso2":"NZ","lat":-43.81,"lon":-176.457},{"id":"CHX","name":"Cap Manuel Niño International Airport","city":"Changuinola","countryIso2":"PA","lat":9.4586,"lon":-82.5168},{"id":"CHY","name":"Choiseul Bay Airport","city":"Choiseul Bay","countryIso2":"SB","lat":-6.7119,"lon":156.3961},{"id":"CIA","name":"Ciampino–G. B. Pastine International Airport","city":"Rome","countryIso2":"IT","lat":41.7994,"lon":12.5949},{"id":"CIC","name":"Chico Municipal Airport","city":"Chico","countryIso2":"US","lat":39.7954,"lon":-121.858},{"id":"CID","name":"The Eastern Iowa Airport","city":"Cedar Rapids","countryIso2":"US","lat":41.8847,"lon":-91.7108},{"id":"CIF","name":"Chifeng Airport","city":"Chifeng","countryIso2":"CN","lat":42.235,"lon":118.908},{"id":"CIH","name":"Changzhi Airport","city":"Changzhi","countryIso2":"CN","lat":36.2475,"lon":113.126},{"id":"CIJ","name":"Capitán Aníbal Arab Airport","city":"Cobija","countryIso2":"BO","lat":-11.0404,"lon":-68.783},{"id":"CIK","name":"Chalkyitsik Airport","city":"Chalkyitsik","countryIso2":"US","lat":66.645,"lon":-143.74},{"id":"CIO","name":"Teniente Col Carmelo Peralta Airport","city":"Conception","countryIso2":"PY","lat":-23.4424,"lon":-57.4273},{"id":"CIP","name":"Chipata Airport","city":"Chipata","countryIso2":"ZM","lat":-13.5583,"lon":32.5872},{"id":"CIS","name":"Canton Island Airport","city":"Canton Island","countryIso2":"KI","lat":-2.7681,"lon":-171.71},{"id":"CIT","name":"Shymkent Airport","city":"Chimkent","countryIso2":"KZ","lat":42.3642,"lon":69.4789},{"id":"CIU","name":"Chippewa County International Airport","city":"Sault Ste Marie","countryIso2":"US","lat":46.2508,"lon":-84.4724},{"id":"CIW","name":"Canouan Airport","city":"Canouan Island","countryIso2":"VC","lat":12.699,"lon":-61.3424},{"id":"CIX","name":"Capitan FAP Jose A Quinones Gonzales International Airport","city":"Chiclayo","countryIso2":"PE","lat":-6.7875,"lon":-79.8281},{"id":"CIY","name":"Comiso Airport","city":"Comiso","countryIso2":"IT","lat":36.9946,"lon":14.6072},{"id":"CIZ","name":"Coari Airport","city":"Coari","countryIso2":"BR","lat":-4.1341,"lon":-63.1326},{"id":"CJA","name":"Mayor General FAP Armando Revoredo Iglesias Airport","city":"Cajamarca","countryIso2":"PE","lat":-7.1392,"lon":-78.4894},{"id":"CJB","name":"Coimbatore International Airport","city":"Coimbatore","countryIso2":"IN","lat":11.03,"lon":77.0434},{"id":"CJC","name":"El Loa Airport","city":"Calama","countryIso2":"CL","lat":-22.4982,"lon":-68.9036},{"id":"CJF","name":"Coondewanna Airport","city":"Coondewanna","countryIso2":"AU","lat":-22.9667,"lon":118.813},{"id":"CJJ","name":"Cheongju International Airport","city":"Chongju","countryIso2":"KR","lat":36.7166,"lon":127.499},{"id":"CJL","name":"Chitral Airport","city":"Chitral","countryIso2":"PK","lat":35.8866,"lon":71.8006},{"id":"CJM","name":"Chumphon Airport","city":"Chumphon","countryIso2":"TH","lat":10.7112,"lon":99.3617},{"id":"CJS","name":"Abraham González International Airport","city":"Ciudad Juarez","countryIso2":"MX","lat":31.6361,"lon":-106.429},{"id":"CJU","name":"Jeju International Airport","city":"Cheju","countryIso2":"KR","lat":33.5113,"lon":126.493},{"id":"CKB","name":"North Central West Virginia Airport","city":"Clarksburg","countryIso2":"US","lat":39.2966,"lon":-80.2281},{"id":"CKC","name":"Cherkasy International Airport","city":"Cherkassy","countryIso2":"UA","lat":49.4156,"lon":31.9953},{"id":"CKF","name":"Crisp County Cordele Airport","city":"Cordele","countryIso2":"US","lat":31.9888,"lon":-83.7739},{"id":"CKG","name":"Chongqing Jiangbei International Airport","city":"Chongqing","countryIso2":"CN","lat":29.7192,"lon":106.642},{"id":"CKH","name":"Chokurdakh Airport","city":"Chokurdah","countryIso2":"RU","lat":70.6231,"lon":147.902},{"id":"CKL","name":"Chkalovskiy Airport","city":"Shchyolkovo","countryIso2":"RU","lat":55.8783,"lon":38.0617},{"id":"CKS","name":"Carajás Airport","city":"Parauapebas","countryIso2":"BR","lat":-6.1153,"lon":-50.0014},{"id":"CKV","name":"Clarksville–Montgomery County Regional Airport","city":"Clarksville","countryIso2":"US","lat":36.6219,"lon":-87.415},{"id":"CKY","name":"Conakry International Airport","city":"Conakry","countryIso2":"GN","lat":9.5769,"lon":-13.612},{"id":"CKZ","name":"Çanakkale Airport","city":"Canakkale","countryIso2":"TR","lat":40.1377,"lon":26.4268},{"id":"CLD","name":"Mc Clellan-Palomar Airport","city":"Carlsbad","countryIso2":"US","lat":33.1283,"lon":-117.28},{"id":"CLE","name":"Cleveland Hopkins International Airport","city":"Cleveland","countryIso2":"US","lat":41.4117,"lon":-81.8498},{"id":"CLJ","name":"Cluj-Napoca International Airport","city":"Cluj-napoca","countryIso2":"RO","lat":46.7852,"lon":23.6862},{"id":"CLL","name":"Easterwood Field","city":"College Station","countryIso2":"US","lat":30.5886,"lon":-96.3638},{"id":"CLM","name":"William R Fairchild International Airport","city":"Port Angeles","countryIso2":"US","lat":48.1202,"lon":-123.5},{"id":"CLN","name":"Brig. Lysias Augusto Rodrigues Airport","city":"Carolina","countryIso2":"BR","lat":-7.3204,"lon":-47.4587},{"id":"CLO","name":"Alfonso Bonilla Aragon International Airport","city":"Cali","countryIso2":"CO","lat":3.5432,"lon":-76.3816},{"id":"CLQ","name":"Licenciado Miguel de la Madrid Airport","city":"Colima","countryIso2":"MX","lat":19.277,"lon":-103.577},{"id":"CLS","name":"Chehalis Centralia Airport","city":"Chehalis","countryIso2":"US","lat":46.677,"lon":-122.983},{"id":"CLT","name":"Charlotte Douglas International Airport","city":"Charlotte","countryIso2":"US","lat":35.214,"lon":-80.9431},{"id":"CLU","name":"Columbus Municipal Airport","city":"Columbus","countryIso2":"US","lat":39.2619,"lon":-85.8963},{"id":"CLV","name":"Nelson Ribeiro Guimarães Airport","city":"Caldas Novas","countryIso2":"BR","lat":-17.7253,"lon":-48.6075},{"id":"CLW","name":"Clearwater Air Park","city":"Clearwater","countryIso2":"US","lat":27.9767,"lon":-82.7587},{"id":"CLY","name":"Calvi-Sainte-Catherine Airport","city":"Calvi","countryIso2":"FR","lat":42.5244,"lon":8.7931},{"id":"CMA","name":"Cunnamulla Airport","city":"Cunnamulla","countryIso2":"AU","lat":-28.03,"lon":145.622},{"id":"CMB","name":"Bandaranaike International Colombo Airport","city":"Colombo","countryIso2":"LK","lat":7.1808,"lon":79.8841},{"id":"CMD","name":"Cootamundra Airport","city":"","countryIso2":"AU","lat":-34.6239,"lon":148.028},{"id":"CME","name":"Ciudad del Carmen International Airport","city":"Ciudad Del Carmen","countryIso2":"MX","lat":18.6537,"lon":-91.799},{"id":"CMF","name":"Chambéry-Savoie Airport","city":"Chambery","countryIso2":"FR","lat":45.6381,"lon":5.8802},{"id":"CMG","name":"Corumbá International Airport","city":"Corumba","countryIso2":"BR","lat":-19.0119,"lon":-57.6714},{"id":"CMH","name":"Port Columbus International Airport","city":"Columbus","countryIso2":"US","lat":39.998,"lon":-82.8919},{"id":"CMI","name":"University of Illinois Willard Airport","city":"Champaign","countryIso2":"US","lat":40.0392,"lon":-88.2781},{"id":"CMK","name":"Club Makokola Airport","city":"Club Makokola","countryIso2":"MW","lat":-14.3069,"lon":35.1325},{"id":"CMN","name":"Mohammed V International Airport","city":"Casablanca","countryIso2":"MA","lat":33.3675,"lon":-7.59},{"id":"CMP","name":"Santana do Araguaia Airport","city":"Santana do Araguaia","countryIso2":"BR","lat":-9.32,"lon":-50.3285},{"id":"CMQ","name":"Clermont Airport","city":"Clermont","countryIso2":"AU","lat":-22.7731,"lon":147.621},{"id":"CMR","name":"Colmar-Houssen Airport","city":"Colmar","countryIso2":"FR","lat":48.1099,"lon":7.359},{"id":"CMU","name":"Chimbu Airport","city":"Kundiawa","countryIso2":"PG","lat":-6.0243,"lon":144.971},{"id":"CMW","name":"Ignacio Agramonte International Airport","city":"Camaguey","countryIso2":"CU","lat":21.4203,"lon":-77.8475},{"id":"CMX","name":"Houghton County Memorial Airport","city":"Hancock","countryIso2":"US","lat":47.1684,"lon":-88.4891},{"id":"CNB","name":"Coonamble Airport","city":"Coonamble","countryIso2":"AU","lat":-30.9833,"lon":148.376},{"id":"CNC","name":"Coconut Island Airport","city":"Coconut Island","countryIso2":"AU","lat":-10.05,"lon":143.07},{"id":"CND","name":"Mihail Kogălniceanu International Airport","city":"Constanta","countryIso2":"RO","lat":44.3622,"lon":28.4883},{"id":"CNF","name":"Tancredo Neves International Airport","city":"Belo Horizonte","countryIso2":"BR","lat":-19.6244,"lon":-43.9719},{"id":"CNG","name":"Cognac-Châteaubernard (BA 709) Air Base","city":"Cognac","countryIso2":"FR","lat":45.6583,"lon":-0.3175},{"id":"CNI","name":"Changhai Airport","city":"Changhai","countryIso2":"CN","lat":39.2667,"lon":122.6669},{"id":"CNJ","name":"Cloncurry Airport","city":"Cloncurry","countryIso2":"AU","lat":-20.6686,"lon":140.504},{"id":"CNL","name":"Sindal Airport","city":"Sindal","countryIso2":"DK","lat":57.5035,"lon":10.2294},