[{"id":"1796236","name":"Shanghai","countryIso2":"CN","subdivisionId":"CN-23","lat":31.2222,"lon":121.4581,"population":22315474},{"id":"745044","name":"Istanbul","countryIso2":"TR","subdivisionId":"TR-34","lat":41.0138,"lon":28.9497,"population":14804116},{"id":"3435910","name":"Buenos Aires","countryIso2":"AR","subdivisionId":"AR-07","lat":-34.6131,"lon":-58.3772,"population":13076300},{"id":"1275339","name":"Mumbai","countryIso2":"IN","subdivisionId":"IN-16","lat":19.0728,"lon":72.8826,"population":12691836},{"id":"3530597","name":"Mexico City","countryIso2":"MX","subdivisionId":"MX-09","lat":19.4285,"lon":-99.1277,"population":12294193},{"id":"1816670","name":"Beijing","countryIso2":"CN","subdivisionId":"CN-22","lat":39.9075,"lon":116.3972,"population":11716620},{"id":"1174872","name":"Karachi","countryIso2":"PK","subdivisionId":"PK-05","lat":24.8608,"lon":67.0104,"population":11624219},{"id":"1792947","name":"Tianjin","countryIso2":"CN","subdivisionId":"CN-28","lat":39.1422,"lon":117.1767,"population":11090314},{"id":"1809858","name":"Guangzhou","countryIso2":"CN","subdivisionId":"CN-30","lat":23.1167,"lon":113.25,"population":11071424},{"id":"1273294","name":"Delhi","countryIso2":"IN","subdivisionId":"IN-07","lat":28.652,"lon":77.2315,"population":10927986},{"id":"524901","name":"Moscow","countryIso2":"RU","subdivisionId":"RU-48","lat":55.7522,"lon":37.6156,"population":10381222},{"id":"1795565","name":"Shenzhen","countryIso2":"CN","subdivisionId":"CN-30","lat":22.5455,"lon":114.0683,"population":10358381},{"id":"1185241","name":"Dhaka","countryIso2":"BD","subdivisionId":"BD-81","lat":23.7104,"lon":90.4074,"population":10356500},{"id":"1835848","name":"Seoul","countryIso2":"KR","subdivisionId":"KR-11","lat":37.566,"lon":126.9784,"population":10349312},{"id":"3448439","name":"São Paulo","countryIso2":"BR","subdivisionId":"BR-27","lat":-23.5475,"lon":-46.6361,"population":10021295},{"id":"1791247","name":"Wuhan","countryIso2":"CN","subdivisionId":"CN-12","lat":30.5833,"lon":114.2667,"population":9785388},{"id":"2332459","name":"Lagos","countryIso2":"NG","subdivisionId":"NG-05","lat":6.4541,"lon":3.3947,"population":9000000},{"id":"1642911","name":"Jakarta","countryIso2":"ID","subdivisionId":"ID-04","lat":-6.2146,"lon":106.8451,"population":8540121},{"id":"1850147","name":"Tokyo","countryIso2":"JP","subdivisionId":"JP-40","lat":35.6895,"lon":139.6917,"population":8336599},{"id":"5128581","name":"New York City","countryIso2":"US","subdivisionId":"US-NY","lat":40.7143,"lon":-74.006,"population":8175133},{"id":"1812545","name":"Dongguan","countryIso2":"CN","subdivisionId":"CN-30","lat":23.018,"lon":113.7487,"population":8000000},{"id":"1668341","name":"Taipei","countryIso2":"TW","subdivisionId":"TW-04","lat":25.0478,"lon":121.5319,"population":7871900},{"id":"2314302","name":"Kinshasa","countryIso2":"CD","subdivisionId":"CD-06","lat":-4.3276,"lon":15.3136,"population":7785965},{"id":"3936456","name":"Lima","countryIso2":"PE","subdivisionId":"PE-LMA","lat":-12.0432,"lon":-77.0282,"population":7737002},{"id":"360630","name":"Cairo","countryIso2":"EG","subdivisionId":"EG-11","lat":30.0626,"lon":31.2497,"population":7734614},{"id":"3688689","name":"Bogotá","countryIso2":"CO","subdivisionId":"CO-34","lat":4.6097,"lon":-74.0817,"population":7674366},{"id":"2643743","name":"London","countryIso2":"GB","subdivisionId":"GB-ENG","lat":51.5085,"lon":-0.1257,"population":7556900},{"id":"1814906","name":"Chongqing","countryIso2":"CN","subdivisionId":"CN-33","lat":29.5628,"lon":106.5528,"population":7457600},{"id":"1815286","name":"Chengdu","countryIso2":"CN","subdivisionId":"CN-32","lat":30.6667,"lon":104.0667,"population":7415590},{"id":"98182","name":"Baghdad","countryIso2":"IQ","subdivisionId":"IQ-07","lat":33.3406,"lon":44.4009,"population":7216000},{"id":"1799962","name":"Nanjing","countryIso2":"CN","subdivisionId":"CN-04","lat":32.0617,"lon":118.7778,"population":7165292},{"id":"112931","name":"Tehran","countryIso2":"IR","subdivisionId":"IR-26","lat":35.6944,"lon":51.4215,"population":7153309},{"id":"1800146","name":"Nanchong","countryIso2":"CN","subdivisionId":"CN-32","lat":30.7951,"lon":106.0847,"population":7150000},{"id":"1819729","name":"Hong Kong","countryIso2":"HK","subdivisionId":"HK-HCW","lat":22.2783,"lon":114.1747,"population":7012738},{"id":"1790630","name":"Xi’an","countryIso2":"CN","subdivisionId":"CN-26","lat":34.2583,"lon":108.9286,"population":6501190},{"id":"1172451","name":"Lahore","countryIso2":"PK","subdivisionId":"PK-04","lat":31.558,"lon":74.3507,"population":6310888},{"id":"2034937","name":"Shenyang","countryIso2":"CN","subdivisionId":"CN-19","lat":41.7922,"lon":123.4328,"population":6255921},{"id":"1808926","name":"Hangzhou","countryIso2":"CN","subdivisionId":"CN-02","lat":30.2937,"lon":120.1614,"population":6241971},{"id":"3451190","name":"Rio de Janeiro","countryIso2":"BR","subdivisionId":"BR-21","lat":-22.9064,"lon":-43.1822,"population":6023699},{"id":"2037013","name":"Harbin","countryIso2":"CN","subdivisionId":"CN-08","lat":45.75,"lon":126.65,"population":5878939},{"id":"1793724","name":"Tai’an","countryIso2":"CN","subdivisionId":"CN-25","lat":36.1853,"lon":117.12,"population":5499000},{"id":"1886760","name":"Suzhou","countryIso2":"CN","subdivisionId":"CN-04","lat":31.3041,"lon":120.5954,"population":5345961},{"id":"1795940","name":"Shantou","countryIso2":"CN","subdivisionId":"CN-30","lat":23.3681,"lon":116.7148,"population":5329024},{"id":"1609350","name":"Bangkok","countryIso2":"TH","subdivisionId":"TH-40","lat":13.754,"lon":100.5014,"population":5104476},{"id":"1277333","name":"Bengaluru","countryIso2":"IN","subdivisionId":"IN-19","lat":12.9719,"lon":77.5937,"population":5104047},{"id":"498817","name":"Saint Petersburg","countryIso2":"RU","subdivisionId":"RU-66","lat":59.9386,"lon":30.3141,"population":5028000},{"id":"3871336","name":"Santiago","countryIso2":"CL","subdivisionId":"CL-12","lat":-33.4569,"lon":-70.6483,"population":4837295},{"id":"1275004","name":"Kolkata","countryIso2":"IN","subdivisionId":"IN-28","lat":22.5626,"lon":88.363,"population":4631392},{"id":"2147714","name":"Sydney","countryIso2":"AU","subdivisionId":"AU-02","lat":-33.8678,"lon":151.2073,"population":4627345},{"id":"1298824","name":"Yangon","countryIso2":"MM","subdivisionId":"MM-17","lat":16.8053,"lon":96.1561,"population":4477638},{"id":"1805753","name":"Jinan","countryIso2":"CN","subdivisionId":"CN-25","lat":36.6683,"lon":116.9972,"population":4335989},{"id":"1264527","name":"Chennai","countryIso2":"IN","subdivisionId":"IN-25","lat":13.0878,"lon":80.2785,"population":4328063},{"id":"1784658","name":"Zhengzhou","countryIso2":"CN","subdivisionId":"CN-09","lat":34.7578,"lon":113.6486,"population":4253913},{"id":"2158177","name":"Melbourne","countryIso2":"AU","subdivisionId":"AU-07","lat":-37.814,"lon":144.9633,"population":4246375},{"id":"108410","name":"Riyadh","countryIso2":"SA","subdivisionId":"SA-10","lat":24.6877,"lon":46.7219,"population":4205961},{"id":"2038180","name":"Changchun","countryIso2":"CN","subdivisionId":"CN-05","lat":43.88,"lon":125.3228,"population":4193073},{"id":"1814087","name":"Dalian","countryIso2":"CN","subdivisionId":"CN-19","lat":38.9122,"lon":121.6022,"population":4087733},{"id":"5368361","name":"Los Angeles","countryIso2":"US","subdivisionId":"US-CA","lat":34.0522,"lon":-118.2437,"population":3971883},{"id":"1205733","name":"Chittagong","countryIso2":"BD","subdivisionId":"BD-84","lat":22.3384,"lon":91.8317,"population":3920222},{"id":"1804651","name":"Kunming","countryIso2":"CN","subdivisionId":"CN-29","lat":25.0389,"lon":102.7183,"population":3855346},{"id":"361058","name":"Alexandria","countryIso2":"EG","subdivisionId":"EG-06","lat":31.2018,"lon":29.9158,"population":3811516},{"id":"1279233","name":"Ahmedabad","countryIso2":"IN","subdivisionId":"IN-09","lat":23.0258,"lon":72.5873,"population":3719710},{"id":"1797929","name":"Qingdao","countryIso2":"CN","subdivisionId":"CN-25","lat":36.0649,"lon":120.3804,"population":3718835},{"id":"1838524","name":"Busan","countryIso2":"KR","subdivisionId":"KR-10","lat":35.1017,"lon":129.03,"population":3678555},{"id":"2293538","name":"Abidjan","countryIso2":"CI","subdivisionId":"CI-93","lat":5.3544,"lon":-4.0017,"population":3677115},{"id":"2335204","name":"Kano","countryIso2":"NG","subdivisionId":"NG-29","lat":12.0001,"lon":8.5167,"population":3626068},{"id":"1811103","name":"Foshan","countryIso2":"CN","subdivisionId":"CN-30","lat":23.0268,"lon":113.1315,"population":3600000},{"id":"1269843","name":"Hyderabad","countryIso2":"IN","subdivisionId":"IN-40","lat":17.384,"lon":78.4564,"population":3597816},{"id":"1798425","name":"Puyang","countryIso2":"CN","subdivisionId":"CN-02","lat":29.4568,"lon":119.8887,"population":3590000},{"id":"1848354","name":"Yokohama","countryIso2":"JP","subdivisionId":"JP-19","lat":35.4333,"lon":139.65,"population":3574443},{"id":"2339354","name":"Ibadan","countryIso2":"NG","subdivisionId":"NG-32","lat":7.3776,"lon":3.9059,"population":3565108},{"id":"1880252","name":"Singapore","countryIso2":"SG","subdivisionId":"SG-01","lat":1.2897,"lon":103.8501,"population":3547809},{"id":"1790923","name":"Wuxi","countryIso2":"CN","subdivisionId":"CN-04","lat":31.5689,"lon":120.2886,"population":3543719},{"id":"1790645","name":"Xiamen","countryIso2":"CN","subdivisionId":"CN-07","lat":24.4798,"lon":118.0819,"population":3531347},{"id":"323786","name":"Ankara","countryIso2":"TR","subdivisionId":"TR-68","lat":39.9199,"lon":32.8543,"population":3517182},{"id":"1792892","name":"Tianshui","countryIso2":"CN","subdivisionId":"CN-15","lat":34.5795,"lon":105.7424,"population":3500000},{"id":"1799397","name":"Ningbo","countryIso2":"CN","subdivisionId":"CN-02","lat":29.8782,"lon":121.5495,"population":3491597},{"id":"1566083","name":"Ho Chi Minh City","countryIso2":"VN","subdivisionId":"VN-20","lat":10.823,"lon":106.6297,"population":3467331},{"id":"1794903","name":"Shiyan","countryIso2":"CN","subdivisionId":"CN-12","lat":32.6475,"lon":110.7781,"population":3460000},{"id":"3369157","name":"Cape Town","countryIso2":"ZA","subdivisionId":"ZA-11","lat":-33.9258,"lon":18.4232,"population":3433441},{"id":"1793511","name":"Taiyuan","countryIso2":"CN","subdivisionId":"CN-24","lat":37.8694,"lon":112.5603,"population":3426519},{"id":"2950159","name":"Berlin","countryIso2":"DE","subdivisionId":"DE-16","lat":52.5244,"lon":13.4105,"population":3426354},{"id":"1793346","name":"Tangshan","countryIso2":"CN","subdivisionId":"CN-10","lat":39.6333,"lon":118.1833,"population":3372102},{"id":"1808722","name":"Hefei","countryIso2":"CN","subdivisionId":"CN-01","lat":31.8639,"lon":117.2808,"population":3310268},{"id":"3117735","name":"Madrid","countryIso2":"ES","subdivisionId":"ES-29","lat":40.4165,"lon":-3.7026,"population":3255944},{"id":"1871859","name":"Pyongyang","countryIso2":"KP","subdivisionId":"KP-12","lat":39.0339,"lon":125.7543,"population":3222000},{"id":"2553604","name":"Casablanca","countryIso2":"MA","subdivisionId":"MA-06","lat":33.5883,"lon":-7.6114,"population":3144909},{"id":"1785286","name":"Zibo","countryIso2":"CN","subdivisionId":"CN-25","lat":36.7906,"lon":118.0633,"population":3129228},{"id":"1915223","name":"Zhongshan","countryIso2":"CN","subdivisionId":"CN-30","lat":21.3199,"lon":110.5723,"population":3121275},{"id":"1007311","name":"Durban","countryIso2":"ZA","subdivisionId":"ZA-02","lat":-29.8579,"lon":31.0292,"population":3120282},{"id":"1815577","name":"Changsha","countryIso2":"CN","subdivisionId":"CN-11","lat":28.1987,"lon":112.9709,"population":3093980},{"id":"1138958","name":"Kabul","countryIso2":"AF","subdivisionId":"AF-13","lat":34.5281,"lon":69.1723,"population":3043532},{"id":"1529102","name":"Ürümqi","countryIso2":"CN","subdivisionId":"CN-13","lat":43.801,"lon":87.6005,"population":3029372},{"id":"3646738","name":"Caracas","countryIso2":"VE","subdivisionId":"VE-25","lat":10.488,"lon":-66.8792,"population":3000000},{"id":"292223","name":"Dubai","countryIso2":"AE","subdivisionId":"AE-03","lat":25.0773,"lon":55.3093,"population":2956587},{"id":"1259229","name":"Pune","countryIso2":"IN","subdivisionId":"IN-16","lat":18.5196,"lon":73.8554,"population":2935744},{"id":"1255364","name":"Sūrat","countryIso2":"IN","subdivisionId":"IN-09","lat":21.1959,"lon":72.8302,"population":2894504},{"id":"105343","name":"Jeddah","countryIso2":"SA","subdivisionId":"SA-14","lat":21.4901,"lon":39.1862,"population":2867446},{"id":"1795270","name":"Shijiazhuang","countryIso2":"CN","subdivisionId":"CN-10","lat":38.0414,"lon":114.4786,"population":2834942},{"id":"1267995","name":"Kanpur","countryIso2":"IN","subdivisionId":"IN-36","lat":26.4652,"lon":80.3498,"population":2823249},{"id":"703448","name":"Kyiv","countryIso2":"UA","subdivisionId":"UA-12","lat":50.4547,"lon":30.5238,"population":2797553},{"id":"2240449","name":"Luanda","countryIso2":"AO","subdivisionId":"AO-20","lat":-8.8368,"lon":13.2343,"population":2776168},{"id":"1692192","name":"Quezon City","countryIso2":"PH","subdivisionId":"PH-NCR","lat":14.6488,"lon":121.0509,"population":2761720},{"id":"344979","name":"Addis Ababa","countryIso2":"ET","subdivisionId":"ET-44","lat":9.025,"lon":38.7469,"population":2757729},{"id":"184745","name":"Nairobi","countryIso2":"KE","subdivisionId":"KE-05","lat":-1.2833,"lon":36.8167,"population":2750547},{"id":"4887398","name":"Chicago","countryIso2":"US","subdivisionId":"US-IL","lat":41.85,"lon":-87.65,"population":2720546},{"id":"3450554","name":"Salvador","countryIso2":"BR","subdivisionId":"BR-05","lat":-12.9711,"lon":-38.5108,"population":2711840},{"id":"1269515","name":"Jaipur","countryIso2":"IN","subdivisionId":"IN-24","lat":26.9196,"lon":75.7878,"population":2711758},{"id":"160263","name":"Dar es Salaam","countryIso2":"TZ","subdivisionId":"TZ-23","lat":-6.8235,"lon":39.2695,"population":2698652},{"id":"1804430","name":"Lanzhou","countryIso2":"CN","subdivisionId":"CN-15","lat":36.057,"lon":103.8399,"population":2628426},{"id":"1843564","name":"Incheon","countryIso2":"KR","subdivisionId":"KR-12","lat":37.4565,"lon":126.7052,"population":2628000},{"id":"1785725","name":"Yunfu","countryIso2":"CN","subdivisionId":"CN-30","lat":22.9283,"lon":112.0395,"population":2612800},{"id":"6167865","name":"Toronto","countryIso2":"CA","subdivisionId":"CA-08","lat":43.7001,"lon":-79.4163,"population":2600000},{"id":"6619347","name":"Navi Mumbai","countryIso2":"IN","subdivisionId":"IN-16","lat":19.0368,"lon":73.0158,"population":2600000},{"id":"99532","name":"Basrah","countryIso2":"IQ","subdivisionId":"IQ-02","lat":30.5085,"lon":47.7804,"population":2600000},{"id":"1853909","name":"Osaka","countryIso2":"JP","subdivisionId":"JP-32","lat":34.6937,"lon":135.5022,"population":2592413},{"id":"53654","name":"Mogadishu","countryIso2":"SO","subdivisionId":"SO-02","lat":2.0371,"lon":45.3438,"population":2587183},{"id":"1835329","name":"Daegu","countryIso2":"KR","subdivisionId":"KR-15","lat":35.8703,"lon":128.5911,"population":2566540},{"id":"1179400","name":"Faisalabad","countryIso2":"PK","subdivisionId":"PK-04","lat":31.4155,"lon":73.0897,"population":2506595},{"id":"311046","name":"İzmir","countryIso2":"TR","subdivisionId":"TR-35","lat":38.4127,"lon":27.1384,"population":2500603},{"id":"2253354","name":"Dakar","countryIso2":"SN","subdivisionId":"SN-01","lat":14.6937,"lon":-17.4441,"population":2476400},{"id":"1264733","name":"Lucknow","countryIso2":"IN","subdivisionId":"IN-36","lat":26.8393,"lon":80.9231,"population":2472011},{"id":"360995","name":"Giza","countryIso2":"EG","subdivisionId":"EG-08","lat":30.0094,"lon":31.2086,"population":2443203},{"id":"3399415","name":"Fortaleza","countryIso2":"BR","subdivisionId":"BR-06","lat":-3.7172,"lon":-38.5431,"population":2400000},{"id":"3687925","name":"Cali","countryIso2":"CO","subdivisionId":"CO-29","lat":3.4372,"lon":-76.5225,"population":2392877},{"id":"1625822","name":"Surabaya","countryIso2":"ID","subdivisionId":"ID-08","lat":-7.2492,"lon":112.7508,"population":2374658},{"id":"3470127","name":"Belo Horizonte","countryIso2":"BR","subdivisionId":"BR-15","lat":-19.9208,"lon":-43.9378,"population":2373224},{"id":"1800163","name":"Nanchang","countryIso2":"CN","subdivisionId":"CN-03","lat":28.684,"lon":115.8531,"population":2357839},{"id":"3169070","name":"Rome","countryIso2":"IT","subdivisionId":"IT-07","lat":41.8919,"lon":12.5113,"population":2318895},{"id":"124665","name":"Mashhad","countryIso2":"IR","subdivisionId":"IR-42","lat":36.3156,"lon":59.568,"population":2307177},{"id":"5110302","name":"Brooklyn","countryIso2":"US","subdivisionId":"US-NY","lat":40.6501,"lon":-73.9496,"population":2300664},{"id":"4699066","name":"Houston","countryIso2":"US","subdivisionId":"US-TX","lat":29.7633,"lon":-95.3633,"population":2296224},{"id":"5133273","name":"Queens","countryIso2":"US","subdivisionId":"US-NY","lat":40.6815,"lon":-73.8365,"population":2272771},{"id":"1262180","name":"Nagpur","countryIso2":"IN","subdivisionId":"IN-16","lat":21.1463,"lon":79.0849,"population":2228018},{"id":"3633009","name":"Maracaibo","countryIso2":"VE","subdivisionId":"VE-23","lat":10.6666,"lon":-71.6124,"population":2225000},{"id":"3469058","name":"Brasília","countryIso2":"BR","subdivisionId":"BR-07","lat":-15.7797,"lon":-47.9297,"population":2207718},{"id":"3492908","name":"Santo Domingo","countryIso2":"DO","subdivisionId":"DO-34","lat":18.4719,"lon":-69.8923,"population":2201941},{"id":"1856057","name":"Nagoya","countryIso2":"JP","subdivisionId":"JP-01","lat":35.1815,"lon":136.9064,"population":2191279},{"id":"2174003","name":"Brisbane","countryIso2":"AU","subdivisionId":"AU-04","lat":-27.4679,"lon":153.0281,"population":2189878},{"id":"3553478","name":"Havana","countryIso2":"CU","subdivisionId":"CU-02","lat":23.133,"lon":-82.383,"population":2163824},{"id":"2988507","name":"Paris","countryIso2":"FR","subdivisionId":"FR-11","lat":48.8534,"lon":2.3488,"population":2138551},{"id":"99071","name":"Al Mawşil al Jadīdah","countryIso2":"IQ","subdivisionId":"IQ-15","lat":36.3327,"lon":43.1056,"population":2065597},{"id":"993800","name":"Johannesburg","countryIso2":"ZA","subdivisionId":"ZA-06","lat":-26.2023,"lon":28.0436,"population":2026469},{"id":"1819609","name":"Kowloon","countryIso2":"HK","subdivisionId":"HK-KKC","lat":22.3167,"lon":114.1833,"population":2019533},{"id":"388349","name":"Al Başrah al Qadīmah","countryIso2":"IQ","subdivisionId":"IQ-02","lat":30.5032,"lon":47.8151,"population":2015483},{"id":"1526384","name":"Almaty","countryIso2":"KZ","subdivisionId":"KZ-02","lat":43.2567,"lon":76.9286,"population":2000900},{"id":"1917790","name":"Dadonghai","countryIso2":"CN","subdivisionId":"CN-31","lat":18.2206,"lon":109.5103,"population":2000000},{"id":"3674962","name":"Medellín","countryIso2":"CO","subdivisionId":"CO-02","lat":6.2518,"lon":-75.5636,"population":1999979},{"id":"1512569","name":"Tashkent","countryIso2":"UZ","subdivisionId":"UZ-13","lat":41.2647,"lon":69.2163,"population":1978028},{"id":"2507480","name":"Algiers","countryIso2":"DZ","subdivisionId":"DZ-01","lat":36.7323,"lon":3.0875,"population":1977663},{"id":"379252","name":"Khartoum","countryIso2":"SD","subdivisionId":"SD-29","lat":15.5518,"lon":32.5324,"population":1974647},{"id":"2306104","name":"Accra","countryIso2":"GH","subdivisionId":"GH-01","lat":5.556,"lon":-0.1969,"population":1963264},{"id":"3657509","name":"Guayaquil","countryIso2":"EC","subdivisionId":"EC-10","lat":-2.1962,"lon":-79.8862,"population":1952029},{"id":"8347664","name":"Ordos","countryIso2":"CN","subdivisionId":"CN-20","lat":39.6086,"lon":109.7816,"population":1940653},{"id":"71137","name":"Sanaa","countryIso2":"YE","subdivisionId":"YE-16","lat":15.3547,"lon":44.2067,"population":1937451},{"id":"276781","name":"Beirut","countryIso2":"LB","subdivisionId":"LB-04","lat":33.8933,"lon":35.5016,"population":1916100},{"id":"2063523","name":"Perth","countryIso2":"AU","subdivisionId":"AU-08","lat":-31.9522,"lon":115.8614,"population":1896548},{"id":"2128295","name":"Sapporo","countryIso2":"JP","subdivisionId":"JP-12","lat":43.0667,"lon":141.35,"population":1883027},{"id":"2036502","name":"Jilin","countryIso2":"CN","subdivisionId":"CN-05","lat":43.8508,"lon":126.5603,"population":1881977},{"id":"683506","name":"Bucharest","countryIso2":"RO","subdivisionId":"RO-10","lat":44.4323,"lon":26.1063,"population":1877155},{"id":"2422488","name":"Camayenne","countryIso2":"GN","subdivisionId":"GN-04","lat":9.535,"lon":-13.6878,"population":1871242},{"id":"1269743","name":"Indore","countryIso2":"IN","subdivisionId":"IN-35","lat":22.7179,"lon":75.8333,"population":1837041},{"id":"3526683","name":"Iztapalapa","countryIso2":"MX","subdivisionId":"MX-09","lat":19.3553,"lon":-99.0622,"population":1815786},{"id":"2422465","name":"Conakry","countryIso2":"GN","subdivisionId":"GN-04","lat":9.538,"lon":-13.6773,"population":1767200},{"id":"11838258","name":"Bayan Nur","countryIso2":"CN","subdivisionId":"CN-20","lat":40.7414,"lon":107.386,"population":1760000},{"id":"3632998","name":"Maracay","countryIso2":"VE","subdivisionId":"VE-04","lat":10.2354,"lon":-67.5911,"population":1754256},{"id":"1214520","name":"Medan","countryIso2":"ID","subdivisionId":"ID-26","lat":3.5833,"lon":98.6667,"population":1750971},{"id":"1166993","name":"Rawalpindi","countryIso2":"PK","subdivisionId":"PK-04","lat":33.5973,"lon":73.0479,"population":1743101},{"id":"625144","name":"Minsk","countryIso2":"BY","subdivisionId":"BY-04","lat":53.9,"lon":27.5667,"population":1742124},{"id":"3054643","name":"Budapest","countryIso2":"HU","subdivisionId":"HU-05","lat":47.4984,"lon":19.0405,"population":1741041},{"id":"99072","name":"Mosul","countryIso2":"IQ","subdivisionId":"IQ-15","lat":36.335,"lon":43.1189,"population":1739800},{"id":"2911298","name":"Hamburg","countryIso2":"DE","subdivisionId":"DE-04","lat":53.5507,"lon":9.993,"population":1739117},{"id":"3464975","name":"Curitiba","countryIso2":"BR","subdivisionId":"BR-18","lat":-25.4278,"lon":-49.2731,"population":1718421},{"id":"756135","name":"Warsaw","countryIso2":"PL","subdivisionId":"PL-78","lat":52.2298,"lon":21.0118,"population":1702139},{"id":"1650357","name":"Bandung","countryIso2":"ID","subdivisionId":"ID-30","lat":-6.9222,"lon":107.6069,"population":1699719},{"id":"953781","name":"Soweto","countryIso2":"ZA","subdivisionId":"ZA-06","lat":-26.2678,"lon":27.8585,"population":1695047},{"id":"2761369","name":"Vienna","countryIso2":"AT","subdivisionId":"AT-09","lat":48.2085,"lon":16.3721,"population":1691468},{"id":"2538475","name":"Rabat","countryIso2":"MA","subdivisionId":"MA-04","lat":34.0133,"lon":-6.8325,"population":1655753},{"id":"3529612","name":"Ecatepec de Morelos","countryIso2":"MX","subdivisionId":"MX-15","lat":19.6049,"lon":-99.0606,"population":1655015},{"id":"3128760","name":"Barcelona","countryIso2":"ES","subdivisionId":"ES-56","lat":41.3888,"lon":2.159,"population":1621537},{"id":"964137","name":"Pretoria","countryIso2":"ZA","subdivisionId":"ZA-06","lat":-25.7449,"lon":28.1878,"population":1619438},{"id":"170063","name":"Aleppo","countryIso2":"SY","subdivisionId":"SY-09","lat":36.2012,"lon":37.1612,"population":1602264},{"id":"6077243","name":"Montréal","countryIso2":"CA","subdivisionId":"CA-10","lat":45.5088,"lon":-73.5878,"population":1600000},{"id":"1785623","name":"Kunshan","countryIso2":"CN","subdivisionId":"CN-04","lat":31.3776,"lon":120.9543,"population":1600000},{"id":"1701668","name":"Manila","countryIso2":"PH","subdivisionId":"PH-NCR","lat":14.6042,"lon":120.9822,"population":1600000},{"id":"1260086","name":"Patna","countryIso2":"IN","subdivisionId":"IN-34","lat":25.5941,"lon":85.1356,"population":1599920},{"id":"1275841","name":"Bhopal","countryIso2":"IN","subdivisionId":"IN-35","lat":23.2547,"lon":77.4029,"population":1599914},{"id":"3663517","name":"Manaus","countryIso2":"BR","subdivisionId":"BR-04","lat":-3.1019,"lon":-60.025,"population":1598210},{"id":"1788534","name":"Xinyang","countryIso2":"CN","subdivisionId":"CN-09","lat":32.1228,"lon":114.0656,"population":1590668},{"id":"2335727","name":"Kaduna","countryIso2":"NG","subdivisionId":"NG-23","lat":10.5264,"lon":7.4388,"population":1582102},{"id":"1821306","name":"Phnom Penh","countryIso2":"KH","subdivisionId":"KH-22","lat":11.5625,"lon":104.916,"population":1573544},{"id":"170654","name":"Damascus","countryIso2":"SY","subdivisionId":"SY-13","lat":33.5102,"lon":36.2913,"population":1569394},{"id":"4560349","name":"Philadelphia","countryIso2":"US","subdivisionId":"US-PA","lat":39.9523,"lon":-75.1638,"population":1567442},{"id":"5308655","name":"Phoenix","countryIso2":"US","subdivisionId":"US-AZ","lat":33.4484,"lon":-112.074,"population":1563025},{"id":"418863","name":"Isfahan","countryIso2":"IR","subdivisionId":"IR-28","lat":32.6525,"lon":51.6746,"population":1547164},{"id":"1264728","name":"Ludhiāna","countryIso2":"IN","subdivisionId":"IN-23","lat":30.912,"lon":75.8538,"population":1545368},{"id":"890299","name":"Harare","countryIso2":"ZW","subdivisionId":"ZW-10","lat":-17.8277,"lon":31.0534,"population":1542813},{"id":"1859171","name":"Kobe","countryIso2":"JP","subdivisionId":"JP-13","lat":34.6913,"lon":135.183,"population":1528478},{"id":"1649378","name":"Bekasi","countryIso2":"ID","subdivisionId":"ID-30","lat":-6.2349,"lon":106.9896,"population":1520119},{"id":"1673820","name":"Kaohsiung","countryIso2":"TW","subdivisionId":"TW-02","lat":22.6163,"lon":120.3133,"population":1519711},{"id":"2673730","name":"Stockholm","countryIso2":"SE","subdivisionId":"SE-26","lat":59.3294,"lon":18.0687,"population":1515017},{"id":"1720151","name":"Caloocan City","countryIso2":"PH","subdivisionId":"PH-NCR","lat":14.6495,"lon":120.9679,"population":1500000},{"id":"4005539","name":"Guadalajara","countryIso2":"MX","subdivisionId":"MX-14","lat":20.6668,"lon":-103.3918,"population":1495182},{"id":"5125771","name":"Manhattan","countryIso2":"US","subdivisionId":"US-NY","lat":40.7834,"lon":-73.9662,"population":1487536},{"id":"3439389","name":"Asunción","countryIso2":"PY","subdivisionId":"PY-22","lat":-25.2865,"lon":-57.647,"population":1482200},{"id":"3390760","name":"Recife","countryIso2":"BR","subdivisionId":"BR-30","lat":-8.0539,"lon":-34.8811,"population":1478098},{"id":"1835235","name":"Daejeon","countryIso2":"KR","subdivisionId":"KR-19","lat":36.3491,"lon":127.3849,"population":1475221},{"id":"4726206","name":"San Antonio","countryIso2":"US","subdivisionId":"US-TX","lat":29.4241,"lon":-98.4936,"population":1469845},{"id":"2298890","name":"Kumasi","countryIso2":"GH","subdivisionId":"GH-02","lat":6.6885,"lon":-1.6244,"population":1468609},{"id":"1736376","name":"Kota Bharu","countryIso2":"MY","subdivisionId":"MY-03","lat":6.1236,"lon":102.2433,"population":1459994},{"id":"1857910","name":"Kyoto","countryIso2":"JP","subdivisionId":"JP-22","lat":35.0211,"lon":135.7539,"population":1459640},{"id":"1735161","name":"Kuala Lumpur","countryIso2":"MY","subdivisionId":"MY-14","lat":3.1412,"lon":101.6865,"population":1453975},{"id":"128747","name":"Karaj","countryIso2":"IR","subdivisionId":"IR-44","lat":35.8327,"lon":50.9915,"population":1448075},{"id":"1283240","name":"Kathmandu","countryIso2":"NP","subdivisionId":"NP-3","lat":27.7017,"lon":85.3206,"population":1442271},{"id":"1633070","name":"Palembang","countryIso2":"ID","subdivisionId":"ID-32","lat":-2.9167,"lon":104.7458,"population":1441500},{"id":"1169825","name":"Multan","countryIso2":"PK","subdivisionId":"PK-04","lat":30.1968,"lon":71.4782,"population":1437230},{"id":"1254361","name":"Tirunelveli","countryIso2":"IN","subdivisionId":"IN-25","lat":8.7274,"lon":77.6838,"population":1435844},{"id":"3521081","name":"Puebla","countryIso2":"MX","subdivisionId":"MX-21","lat":19.0379,"lon":-98.2035,"population":1434062},{"id":"1581130","name":"Hanoi","countryIso2":"VN","subdivisionId":"VN-44","lat":21.0245,"lon":105.8412,"population":1431270},{"id":"706483","name":"Kharkiv","countryIso2":"UA","subdivisionId":"UA-07","lat":49.9808,"lon":36.2527,"population":1430885},{"id":"1279259","name":"Agra","countryIso2":"IN","subdivisionId":"IN-36","lat":27.1833,"lon":78.0167,"population":1430055},{"id":"3860259","name":"Córdoba","countryIso2":"AR","subdivisionId":"AR-05","lat":-31.4135,"lon":-64.181,"population":1428214},{"id":"113646","name":"Tabriz","countryIso2":"IR","subdivisionId":"IR-33","lat":38.08,"lon":46.2919,"population":1424641},{"id":"1496747","name":"Novosibirsk","countryIso2":"RU","subdivisionId":"RU-53","lat":55.0415,"lon":82.9346,"population":1419007},{"id":"1841811","name":"Gwangju","countryIso2":"KR","subdivisionId":"KR-18","lat":35.1547,"lon":126.9156,"population":1416938},{"id":"750269","name":"Bursa","countryIso2":"TR","subdivisionId":"TR-16","lat":40.1956,"lon":29.0601,"population":1412701},{"id":"1253573","name":"Vadodara","countryIso2":"IN","subdivisionId":"IN-09","lat":22.2994,"lon":73.2081,"population":1409476},{"id":"3405870","name":"Belém","countryIso2":"BR","subdivisionId":"BR-16","lat":-1.4558,"lon":-48.5044,"population":1407737},{"id":"2037355","name":"Fushun","countryIso2":"CN","subdivisionId":"CN-19","lat":41.8867,"lon":123.9436,"population":1400646},{"id":"3652462","name":"Quito","countryIso2":"EC","subdivisionId":"EC-18","lat":-0.2298,"lon":-78.5249,"population":1399814},{"id":"5391811","name":"San Diego","countryIso2":"US","subdivisionId":"US-CA","lat":32.7157,"lon":-117.1647,"population":1394928},{"id":"1863967","name":"Fukuoka","countryIso2":"JP","subdivisionId":"JP-07","lat":33.6,"lon":130.4167,"population":1392289},{"id":"1070940","name":"Antananarivo","countryIso2":"MG","subdivisionId":"MG-11","lat":-18.9137,"lon":47.5361,"population":1391433},{"id":"1801792","name":"Luoyang","countryIso2":"CN","subdivisionId":"CN-09","lat":34.6836,"lon":112.4536,"population":1390581},{"id":"1176734","name":"Hyderabad","countryIso2":"PK","subdivisionId":"PK-05","lat":25.3924,"lon":68.3737,"population":1386330},{"id":"5110266","name":"The Bronx","countryIso2":"US","subdivisionId":"US-NY","lat":40.8499,"lon":-73.8664,"population":1385108},{"id":"3625549","name":"Valencia","countryIso2":"VE","subdivisionId":"VE-07","lat":10.162,"lon":-68.0076,"population":1385083},{"id":"1177662","name":"Gujranwala","countryIso2":"PK","subdivisionId":"PK-04","lat":32.1557,"lon":74.1871,"population":1384471},{"id":"3689147","name":"Barranquilla","countryIso2":"CO","subdivisionId":"CO-04","lat":10.9685,"lon":-74.7813,"population":1380425},{"id":"1802875","name":"Guankou","countryIso2":"CN","subdivisionId":"CN-11","lat":28.1586,"lon":113.6271,"population":1380000},{"id":"922704","name":"Lubumbashi","countryIso2":"CD","subdivisionId":"CD-14","lat":-11.6609,"lon":27.4794,"population":1373770},{"id":"3452925","name":"Porto Alegre","countryIso2":"BR","subdivisionId":"BR-23","lat":-30.0328,"lon":-51.2302,"population":1372741},{"id":"1625084","name":"Tangerang","countryIso2":"ID","subdivisionId":"ID-33","lat":-6.1781,"lon":106.63,"population":1372124},{"id":"1262111","name":"Najafgarh","countryIso2":"IN","subdivisionId":"IN-07","lat":28.6092,"lon":76.9798,"population":1365000},{"id":"3904906","name":"Santa Cruz de la Sierra","countryIso2":"BO","subdivisionId":"BO-08","lat":-17.7863,"lon":-63.1812,"population":1364389},{"id":"1808963","name":"Handan","countryIso2":"CN","subdivisionId":"CN-10","lat":36.6006,"lon":114.4678,"population":1358318},{"id":"232422","name":"Kampala","countryIso2":"UG","subdivisionId":"UG-C","lat":0.3163,"lon":32.5822,"population":1353189},{"id":"1486209","name":"Yekaterinburg","countryIso2":"RU","subdivisionId":"RU-71","lat":56.8519,"lon":60.6122,"population":1349772},{"id":"1336135","name":"Khulna","countryIso2":"BD","subdivisionId":"BD-82","lat":22.8098,"lon":89.5644,"population":1342339},{"id":"2232593","name":"Douala","countryIso2":"CM","subdivisionId":"CM-05","lat":4.0483,"lon":9.7043,"population":1338082},{"id":"1270926","name":"Gorakhpur","countryIso2":"IN","subdivisionId":"IN-10","lat":29.4477,"lon":75.6721,"population":1324570},{"id":"292672","name":"Sharjah","countryIso2":"AE","subdivisionId":"AE-06","lat":25.3374,"lon":55.4121,"population":1324473},{"id":"104515","name":"Mecca","countryIso2":"SA","subdivisionId":"SA-14","lat":21.4266,"lon":39.8256,"population":1323624},{"id":"1622786","name":"Makassar","countryIso2":"ID","subdivisionId":"ID-38","lat":-5.1486,"lon":119.4319,"population":1321717},{"id":"4013708","name":"Juárez","countryIso2":"MX","subdivisionId":"MX-06","lat":31.7202,"lon":-106.4608,"population":1321004},{"id":"1859642","name":"Kawasaki","countryIso2":"JP","subdivisionId":"JP-19","lat":35.5206,"lon":139.7172,"population":1306785},{"id":"8581443","name":"South Tangerang","countryIso2":"ID","subdivisionId":"ID-33","lat":-6.2886,"lon":106.7179,"population":1303569},{"id":"2038432","name":"Baotou","countryIso2":"CN","subdivisionId":"CN-20","lat":40.5834,"lon":110.0167,"population":1301768},{"id":"3981609","name":"Tijuana","countryIso2":"MX","subdivisionId":"MX-02","lat":32.5027,"lon":-117.0037,"population":1300983},{"id":"4684888","name":"Dallas","countryIso2":"US","subdivisionId":"US-TX","lat":32.7831,"lon":-96.8067,"population":1300092},{"id":"109223","name":"Medina","countryIso2":"SA","subdivisionId":"SA-05","lat":24.4686,"lon":39.6142,"population":1300000},{"id":"2220957","name":"Yaoundé","countryIso2":"CM","subdivisionId":"CM-11","lat":3.8667,"lon":11.5167,"population":1299369},{"id":"2460596","name":"Bamako","countryIso2":"ML","subdivisionId":"ML-01","lat":12.65,"lon":-8,"population":1297281},{"id":"1261731","name":"Nashik","countryIso2":"IN","subdivisionId":"IN-16","lat":19.9973,"lon":73.791,"population":1289497},{"id":"1627896","name":"Semarang","countryIso2":"ID","subdivisionId":"ID-07","lat":-6.9931,"lon":110.4208,"population":1288084},{"id":"2260535","name":"Brazzaville","countryIso2":"CG","subdivisionId":"CG-12","lat":-4.2661,"lon":15.2832,"population":1284609},{"id":"1259652","name":"Pimpri","countryIso2":"IN","subdivisionId":"IN-16","lat":18.6229,"lon":73.807,"population":1284606},{"id":"520555","name":"Nizhniy Novgorod","countryIso2":"RU","subdivisionId":"RU-51","lat":56.3287,"lon":44.002,"population":1284164},{"id":"250441","name":"Amman","countryIso2":"JO","subdivisionId":"JO-16","lat":31.9552,"lon":35.945,"population":1275857},{"id":"1723510","name":"Budta","countryIso2":"PH","subdivisionId":"PH-14","lat":7.2042,"lon":124.4397,"population":1273715},{"id":"792680","name":"Belgrade","countryIso2":"RS","subdivisionId":"RS-SE","lat":44.804,"lon":20.4651,"population":1273651},{"id":"3441575","name":"Montevideo","countryIso2":"UY","subdivisionId":"UY-10","lat":-34.9033,"lon":-56.1882,"population":1270737},{"id":"909137","name":"Lusaka","countryIso2":"ZM","subdivisionId":"ZM-09","lat":-15.4067,"lon":28.2871,"population":1267440},{"id":"1788046","name":"Xuchang","countryIso2":"CN","subdivisionId":"CN-09","lat":34.0319,"lon":113.863,"population":1265536},{"id":"1268295","name":"Kalyān","countryIso2":"IN","subdivisionId":"IN-16","lat":19.2437,"lon":73.1355,"population":1262255},{"id":"1254661","name":"Thāne","countryIso2":"IN","subdivisionId":"IN-16","lat":19.197,"lon":72.9636,"population":1261517},{"id":"2867714","name":"Munich","countryIso2":"DE","subdivisionId":"DE-02","lat":48.1374,"lon":11.5755,"population":1260391},{"id":"268743","name":"Ra’s Bayrūt","countryIso2":"LB","subdivisionId":"LB-04","lat":33.9,"lon":35.4833,"population":1251739},{"id":"115019","name":"Shiraz","countryIso2":"IR","subdivisionId":"IR-07","lat":29.6103,"lon":52.5311,"population":1249942},{"id":"325363","name":"Adana","countryIso2":"TR","subdivisionId":"TR-81","lat":36.9862,"lon":35.3253,"population":1248988},{"id":"1835553","name":"Suwon","countryIso2":"KR","subdivisionId":"KR-13","lat":37.2911,"lon":127.0089,"population":1242724},{"id":"3998655","name":"León de los Aldama","countryIso2":"MX","subdivisionId":"MX-11","lat":21.1291,"lon":-101.6737,"population":1238962},{"id":"3173435","name":"Milan","countryIso2":"IT","subdivisionId":"IT-09","lat":45.4643,"lon":9.1895,"population":1236837},{"id":"3718426","name":"Port-au-Prince","countryIso2":"HT","subdivisionId":"HT-11","lat":18.5435,"lon":-72.3388,"population":1234742},{"id":"2078025","name":"Adelaide","countryIso2":"AU","subdivisionId":"AU-05","lat":-34.9287,"lon":138.5986,"population":1225235},{"id":"1263214","name":"Meerut","countryIso2":"IN","subdivisionId":"IN-36","lat":28.98,"lon":77.7064,"population":1223184},{"id":"1261162","name":"Nowrangapur","countryIso2":"IN","subdivisionId":"IN-21","lat":19.2311,"lon":82.5483,"population":1220946},{"id":"1271951","name":"Faridabad","countryIso2":"IN","subdivisionId":"IN-10","lat":28.4112,"lon":77.3132,"population":1220229},{"id":"1168197","name":"Peshawar","countryIso2":"PK","subdivisionId":"PK-03","lat":34.008,"lon":71.5785,"population":1218773},{"id":"1715348","name":"Davao","countryIso2":"PH","subdivisionId":"PH-11","lat":7.0731,"lon":125.6128,"population":1212504},{"id":"1311874","name":"Mandalay","countryIso2":"MM","subdivisionId":"MM-08","lat":21.9747,"lon":96.0836,"population":1208099},{"id":"1927639","name":"Yueyang","countryIso2":"CN","subdivisionId":"CN-11","lat":29.3746,"lon":113.0948,"population":1200000},{"id":"3492914","name":"Santiago de los Caballeros","countryIso2":"DO","subdivisionId":"DO-25","lat":19.4517,"lon":-70.697,"population":1200000},{"id":"365137","name":"Omdurman","countryIso2":"SD","subdivisionId":"SD-29","lat":15.6445,"lon":32.4777,"population":1200000},{"id":"2038632","name":"Anshan","countryIso2":"CN","subdivisionId":"CN-19","lat":41.1236,"lon":122.99,"population":1199275},{"id":"1787824","name":"Tongshan","countryIso2":"CN","subdivisionId":"CN-04","lat":34.1805,"lon":117.1571,"population":1199193},{"id":"1271308","name":"Ghāziābād","countryIso2":"IN","subdivisionId":"IN-36","lat":28.6654,"lon":77.4392,"population":1199191},{"id":"1645524","name":"Depok","countryIso2":"ID","subdivisionId":"ID-30","lat":-6.4,"lon":106.8186,"population":1198129},{"id":"6940394","name":"Saitama","countryIso2":"JP","subdivisionId":"JP-34","lat":35.9081,"lon":139.6566,"population":1193350},{"id":"1272423","name":"Dombivli","countryIso2":"IN","subdivisionId":"IN-16","lat":19.2167,"lon":73.0833,"population":1193000},{"id":"1040652","name":"Maputo","countryIso2":"MZ","subdivisionId":"MZ-11","lat":-25.9655,"lon":32.5832,"population":1191613},{"id":"3514674","name":"Gustavo Adolfo Madero","countryIso2":"MX","subdivisionId":"MX-09","lat":19.4939,"lon":-99.1107,"population":1185772},{"id":"1810821","name":"Fuzhou","countryIso2":"CN","subdivisionId":"CN-07","lat":26.0614,"lon":119.3061,"population":1179720},{"id":"1258847","name":"Rājkot","countryIso2":"IN","subdivisionId":"IN-09","lat":22.2916,"lon":70.7932,"population":1177362},{"id":"3838583","name":"Rosario","countryIso2":"AR","subdivisionId":"AR-21","lat":-32.9468,"lon":-60.6393,"population":1173533},{"id":"1809461","name":"Guiyang","countryIso2":"CN","subdivisionId":"CN-18","lat":26.5833,"lon":106.7167,"population":1171633},{"id":"3462377","name":"Goiânia","countryIso2":"BR","subdivisionId":"BR-29","lat":-16.6786,"lon":-49.2539,"population":1171195},{"id":"3461786","name":"Guarulhos","countryIso2":"BR","subdivisionId":"BR-27","lat":-23.4628,"lon":-46.5333,"population":1169577},{"id":"3067696","name":"Prague","countryIso2":"CZ","subdivisionId":"CZ-52","lat":50.088,"lon":14.4208,"population":1165581},{"id":"1253405","name":"Varanasi","countryIso2":"IN","subdivisionId":"IN-36","lat":25.3167,"lon":83.0104,"population":1164404},{"id":"6295587","name":"Batam","countryIso2":"ID","subdivisionId":"ID-37","lat":1.1494,"lon":104.0249,"population":1164352},{"id":"2618425","name":"Copenhagen","countryIso2":"DK","subdivisionId":"DK-17","lat":55.6759,"lon":12.5655,"population":1153615},{"id":"727011","name":"Sofia","countryIso2":"BG","subdivisionId":"BG-42","lat":42.6975,"lon":23.3242,"population":1152556},{"id":"2210247","name":"Tripoli","countryIso2":"LY","subdivisionId":"LY-77","lat":32.8874,"lon":13.1873,"population":1150989},{"id":"2324774","name":"Port Harcourt","countryIso2":"NG","subdivisionId":"NG-50","lat":4.7774,"lon":7.0134,"population":1148665},{"id":"1862415","name":"Hiroshima","countryIso2":"JP","subdivisionId":"JP-11","lat":34.4,"lon":132.45,"population":1143841},{"id":"3979770","name":"Zapopan","countryIso2":"MX","subdivisionId":"MX-14","lat":20.7236,"lon":-103.3848,"population":1142483},{"id":"1813253","name":"Lijiang","countryIso2":"CN","subdivisionId":"CN-29","lat":26.8688,"lon":100.2207,"population":1137600},{"id":"3995465","name":"Monterrey","countryIso2":"MX","subdivisionId":"MX-19","lat":25.6751,"lon":-100.3185,"population":1135512},{"id":"499099","name":"Samara","countryIso2":"RU","subdivisionId":"RU-65","lat":53.2001,"lon":50.15,"population":1134730},{"id":"1496153","name":"Omsk","countryIso2":"RU","subdivisionId":"RU-54","lat":54.9924,"lon":73.3686,"population":1129281},{"id":"2347283","name":"Benin City","countryIso2":"NG","subdivisionId":"NG-37","lat":6.3382,"lon":5.6258,"population":1125058},{"id":"1978681","name":"Malingao","countryIso2":"PH","subdivisionId":"PH-12","lat":7.1608,"lon":124.475,"population":1121974},{"id":"587084","name":"Baku","countryIso2":"AZ","subdivisionId":"AZ-09","lat":40.3777,"lon":49.892,"population":1116513},{"id":"2331447","name":"Maiduguri","countryIso2":"NG","subdivisionId":"NG-27","lat":11.8469,"lon":13.1571,"population":1112449},{"id":"551487","name":"Kazan","countryIso2":"RU","subdivisionId":"RU-73","lat":55.7887,"lon":49.1221,"population":1104738},{"id":"3530589","name":"Ciudad Nezahualcoyotl","countryIso2":"MX","subdivisionId":"MX-15","lat":19.4006,"lon":-99.0148,"population":1104585},{"id":"616052","name":"Yerevan","countryIso2":"AM","subdivisionId":"AM-11","lat":40.1811,"lon":44.5136,"population":1093485},{"id":"1278710","name":"Amritsar","countryIso2":"IN","subdivisionId":"IN-23","lat":31.6223,"lon":74.8753,"population":1092450},{"id":"2357048","name":"Ouagadougou","countryIso2":"BF","subdivisionId":"BF-03","lat":12.3657,"lon":-1.5339,"population":1086505},{"id":"1848254","name":"Yono","countryIso2":"JP","subdivisionId":"JP-34","lat":35.8833,"lon":139.6333,"population":1077730},{"id":"501175","name":"Rostov-na-Donu","countryIso2":"RU","subdivisionId":"RU-61","lat":47.2314,"lon":39.7233,"population":1074482},{"id":"1278994","name":"Allahābād","countryIso2":"IN","subdivisionId":"IN-36","lat":25.4448,"lon":81.8432,"population":1073438},{"id":"1842485","name":"Goyang-si","countryIso2":"KR","subdivisionId":"KR-13","lat":37.6564,"lon":126.835,"population":1073069},{"id":"314830","name":"Gaziantep","countryIso2":"TR","subdivisionId":"TR-83","lat":37.0594,"lon":37.3825,"population":1065975},{"id":"1253102","name":"Visakhapatnam","countryIso2":"IN","subdivisionId":"IN-02","lat":17.6801,"lon":83.2016,"population":1063178},{"id":"2111149","name":"Sendai","countryIso2":"JP","subdivisionId":"JP-24","lat":38.2667,"lon":140.8667,"population":1063103},{"id":"1508291","name":"Chelyabinsk","countryIso2":"RU","subdivisionId":"RU-13","lat":55.154,"lon":61.4292,"population":1062919},{"id":"2037799","name":"Datong","countryIso2":"CN","subdivisionId":"CN-24","lat":40.0936,"lon":113.2914,"population":1052678},{"id":"611717","name":"Tbilisi","countryIso2":"GE","subdivisionId":"GE-51","lat":41.6941,"lon":44.8337,"population":1049498},{"id":"7283386","name":"Changshu City","countryIso2":"CN","subdivisionId":"CN-04","lat":31.6462,"lon":120.7422,"population":1047700},{"id":"1668399","name":"Taichung","countryIso2":"TW","subdivisionId":"TW-04","lat":24.1469,"lon":120.6839,"population":1040725},{"id":"1254745","name":"Teni","countryIso2":"IN","subdivisionId":"IN-25","lat":10.0112,"lon":77.4777,"population":1034724},{"id":"1790353","name":"Xianyang","countryIso2":"CN","subdivisionId":"CN-26","lat":34.3378,"lon":108.7026,"population":1034081},{"id":"479561","name":"Ufa","countryIso2":"RU","subdivisionId":"RU-08","lat":54.7431,"lon":55.9678,"population":1033338},{"id":"709930","name":"Dnipro","countryIso2":"UA","subdivisionId":"UA-04","lat":48.4593,"lon":35.0386,"population":1032822},{"id":"1897000","name":"Seongnam-si","countryIso2":"KR","subdivisionId":"KR-13","lat":37.4386,"lon":127.1378,"population":1031935},{"id":"3467865","name":"Campinas","countryIso2":"BR","subdivisionId":"BR-27","lat":-22.9056,"lon":-47.0608,"population":1031554},{"id":"1269633","name":"Jabalpur","countryIso2":"IN","subdivisionId":"IN-35","lat":23.167,"lon":79.9501,"population":1030168},{"id":"1270396","name":"Hāora","countryIso2":"IN","subdivisionId":"IN-28","lat":22.5769,"lon":88.3186,"population":1027672},{"id":"1807681","name":"Huainan","countryIso2":"CN","subdivisionId":"CN-01","lat":32.6264,"lon":116.9969,"population":1027655},{"id":"5392171","name":"San Jose","countryIso2":"US","subdivisionId":"US-CA","lat":37.3394,"lon":-121.895,"population":1026908},{"id":"709717","name":"Donetsk","countryIso2":"UA","subdivisionId":"UA-05","lat":48.023,"lon":37.8022,"population":1024700},{"id":"2964574","name":"Dublin","countryIso2":"IE","subdivisionId":"IE-L","lat":53.3331,"lon":-6.2489,"population":1024027},{"id":"5913490","name":"Calgary","countryIso2":"CA","subdivisionId":"CA-01","lat":51.0501,"lon":-114.0853,"population":1019942},{"id":"2800866","name":"Brussels","countryIso2":"BE","subdivisionId":"BE-BRU","lat":50.8505,"lon":4.3488,"population":1019022},{"id":"1278149","name":"Aurangabad","countryIso2":"IN","subdivisionId":"IN-16","lat":19.8776,"lon":75.3423,"population":1016441},{"id":"472757","name":"Volgograd","countryIso2":"RU","subdivisionId":"RU-84","lat":48.7194,"lon":44.5018,"population":1011417},{"id":"3456160","name":"Nova Iguaçu","countryIso2":"BR","subdivisionId":"BR-21","lat":-22.7592,"lon":-43.4511,"population":1002118},{"id":"1797121","name":"Jieyang","countryIso2":"CN","subdivisionId":"CN-30","lat":23.5418,"lon":116.3658,"population":1001985},{"id":"698740","name":"Odessa","countryIso2":"UA","subdivisionId":"UA-17","lat":46.4775,"lon":30.7326,"population":1001558},{"id":"7602670","name":"Zhu Cheng City","countryIso2":"CN","subdivisionId":"CN-25","lat":35.995,"lon":119.4026,"population":1000000},{"id":"6943660","name":"Shivaji Nagar","countryIso2":"IN","subdivisionId":"IN-16","lat":18.5302,"lon":73.8526,"population":1000000},{"id":"1859307","name":"Kitakyushu","countryIso2":"JP","subdivisionId":"JP-07","lat":33.8518,"lon":130.8503,"population":997536},{"id":"1256436","name":"Solāpur","countryIso2":"IN","subdivisionId":"IN-16","lat":17.6715,"lon":75.9104,"population":997281},{"id":"1816971","name":"Baoding","countryIso2":"CN","subdivisionId":"CN-10","lat":38.8511,"lon":115.4903,"population":995652},{"id":"3598132","name":"Guatemala City","countryIso2":"GT","subdivisionId":"GT-07","lat":14.6407,"lon":-90.5133,"population":994938},{"id":"2038300","name":"Benxi","countryIso2":"CN","subdivisionId":"CN-19","lat":41.2886,"lon":123.765,"population":987717},{"id":"2655603","name":"Birmingham","countryIso2":"GB","subdivisionId":"GB-ENG","lat":52.4814,"lon":-1.8998,"population":984333},{"id":"511196","name":"Perm","countryIso2":"RU","subdivisionId":"RU-90","lat":58.0105,"lon":56.2502,"population":982419},{"id":"1255634","name":"Srinagar","countryIso2":"IN","subdivisionId":"IN-12","lat":34.0857,"lon":74.8056,"population":975857},{"id":"2317765","name":"Zaria","countryIso2":"NG","subdivisionId":"NG-23","lat":11.1113,"lon":7.7227,"population":975153},{"id":"3617763","name":"Managua","countryIso2":"NI","subdivisionId":"NI-10","lat":12.1328,"lon":-86.2504,"population":973087},{"id":"964420","name":"Port Elizabeth","countryIso2":"ZA","subdivisionId":"ZA-05","lat":-33.9611,"lon":25.6149,"population":967677},{"id":"2548885","name":"Fès","countryIso2":"MA","subdivisionId":"MA-03","lat":34.0331,"lon":-5.0003,"population":964891},{"id":"2886242","name":"Köln","countryIso2":"DE","subdivisionId":"DE-07","lat":50.9333,"lon":6.95,"population":963395},{"id":"1833747","name":"Ulsan","countryIso2":"KR","subdivisionId":"KR-21","lat":35.5372,"lon":129.3167,"population":962865},{"id":"1274746","name":"Chandigarh","countryIso2":"IN","subdivisionId":"IN-05","lat":30.7363,"lon":76.7884,"population":960787},{"id":"1273865","name":"Coimbatore","countryIso2":"IN","subdivisionId":"IN-25","lat":11.0056,"lon":76.9661,"population":959823},{"id":"3172394","name":"Naples","countryIso2":"IT","subdivisionId":"IT-04","lat":40.8522,"lon":14.2681,"population":959470},{"id":"3395981","name":"Maceió","countryIso2":"BR","subdivisionId":"BR-02","lat":-9.6658,"lon":-35.7353,"population":954991},{"id":"3687238","name":"Cartagena","countryIso2":"CO","subdivisionId":"CO-35","lat":10.3997,"lon":-75.5144,"population":952024},{"id":"1815456","name":"Changzhou","countryIso2":"CN","subdivisionId":"CN-04","lat":31.7736,"lon":119.954,"population":949018},{"id":"101760","name":"Sulţānah","countryIso2":"SA","subdivisionId":"SA-05","lat":24.4926,"lon":39.5857,"population":946697},{"id":"2274895","name":"Monrovia","countryIso2":"LR","subdivisionId":"LR-14","lat":6.3005,"lon":-10.7969,"population":939524},{"id":"3489854","name":"Kingston","countryIso2":"JM","subdivisionId":"JM-17","lat":17.997,"lon":-76.7936,"population":937700},{"id":"95446","name":"Erbil","countryIso2":"IQ","subdivisionId":"IQ-11","lat":36.1833,"lon":44.0119,"population":932800},{"id":"4671654","name":"Austin","countryIso2":"US","subdivisionId":"US-TX","lat":30.2672,"lon":-97.7431,"population":931830},{"id":"1502026","name":"Krasnoyarsk","countryIso2":"RU","subdivisionId":"RU-91","lat":56.0184,"lon":92.8672,"population":927200},{"id":"6611854","name":"Nay Pyi Taw","countryIso2":"MM","subdivisionId":"MM-18","lat":19.745,"lon":96.1297,"population":925000},{"id":"1268865","name":"Jodhpur","countryIso2":"IN","subdivisionId":"IN-24","lat":26.2684,"lon":73.0059,"population":921476},{"id":"2113015","name":"Chiba","countryIso2":"JP","subdivisionId":"JP-04","lat":35.6,"lon":140.1167,"population":919729},{"id":"3388368","name":"São Luís","countryIso2":"BR","subdivisionId":"BR-13","lat":-2.5297,"lon":-44.3028,"population":917237},{"id":"1264521","name":"Madurai","countryIso2":"IN","subdivisionId":"IN-25","lat":9.919,"lon":78.1195,"population":909908},{"id":"2537763","name":"Sale","countryIso2":"MA","subdivisionId":"MA-04","lat":34.0531,"lon":-6.7985,"population":903485},{"id":"1807700","name":"Huaibei","countryIso2":"CN","subdivisionId":"CN-01","lat":33.9744,"lon":116.7917,"population":903039},{"id":"3919968","name":"Cochabamba","countryIso2":"BO","subdivisionId":"BO-02","lat":-17.3895,"lon":-66.1568,"population":900414},{"id":"2293521","name":"Abobo","countryIso2":"CI","subdivisionId":"CI-93","lat":5.4161,"lon":-4.0159,"population":900000},{"id":"1804879","name":"Kaifeng","countryIso2":"CN","subdivisionId":"CN-09","lat":34.7986,"lon":114.3074,"population":900000},{"id":"100077","name":"Abū Ghurayb","countryIso2":"IQ","subdivisionId":"IQ-07","lat":33.3056,"lon":44.1848,"population":900000},{"id":"119208","name":"Qom","countryIso2":"IR","subdivisionId":"IR-39","lat":34.6401,"lon":50.8764,"population":900000},{"id":"1528675","name":"Bishkek","countryIso2":"KG","subdivisionId":"KG-01","lat":42.87,"lon":74.59,"population":900000},{"id":"1271476","name":"Guwahati","countryIso2":"IN","subdivisionId":"IN-03","lat":26.1844,"lon":91.7458,"population":899094},{"id":"2353151","name":"Aba","countryIso2":"NG","subdivisionId":"NG-45","lat":5.1066,"lon":7.3667,"population":897560},{"id":"1798827","name":"Pingdingshan","countryIso2":"CN","subdivisionId":"CN-09","lat":33.7385,"lon":113.3012,"population":889675},{"id":"1270583","name":"Gwalior","countryIso2":"IN","subdivisionId":"IN-35","lat":26.2298,"lon":78.1734,"population":882458},{"id":"2035265","name":"Qiqihar","countryIso2":"CN","subdivisionId":"CN-08","lat":47.3409,"lon":123.9605,"population":882364},{"id":"1732905","name":"Klang","countryIso2":"MY","subdivisionId":"MY-12","lat":3.0367,"lon":101.4433,"population":879867},{"id":"3844421","name":"Mendoza","countryIso2":"AR","subdivisionId":"AR-13","lat":-32.8908,"lon":-68.8272,"population":876884},{"id":"306571","name":"Konya","countryIso2":"TR","subdivisionId":"TR-71","lat":37.8714,"lon":32.4846,"population":875530},{"id":"209228","name":"Mbuji-Mayi","countryIso2":"CD","subdivisionId":"CD-04","lat":-6.136,"lon":23.5898,"population":874761},{"id":"1253184","name":"Vijayawada","countryIso2":"IN","subdivisionId":"IN-02","lat":16.5075,"lon":80.6466,"population":874587},{"id":"2246678","name":"Pikine","countryIso2":"SN","subdivisionId":"SN-01","lat":14.7646,"lon":-17.3907,"population":874062},{"id":"3165524","name":"Turin","countryIso2":"IT","subdivisionId":"IT-12","lat":45.0705,"lon":7.6868,"population":870456},{"id":"1262321","name":"Mysore","countryIso2":"IN","subdivisionId":"IN-19","lat":12.2979,"lon":76.6393,"population":868313},{"id":"4160021","name":"Jacksonville","countryIso2":"US","subdivisionId":"US-FL","lat":30.3322,"lon":-81.6556,"population":868031},{"id":"1791388","name":"Wenzhou","countryIso2":"CN","subdivisionId":"CN-02","lat":27.9994,"lon":120.6668,"population":865672},{"id":"5391959","name":"San Francisco","countryIso2":"US","subdivisionId":"US-CA","lat":37.7749,"lon":-122.4194,"population":864816},{"id":"2644210","name":"Liverpool","countryIso2":"GB","subdivisionId":"GB-ENG","lat":53.4106,"lon":-2.9779,"population":864122},{"id":"498677","name":"Saratov","countryIso2":"RU","subdivisionId":"RU-67","lat":51.5406,"lon":46.0086,"population":863725},{"id":"12069922","name":"Rohini","countryIso2":"IN","subdivisionId":"IN-07","lat":28.7432,"lon":77.0678,"population":860000},{"id":"3600949","name":"Tegucigalpa","countryIso2":"HN","subdivisionId":"HN-08","lat":14.0818,"lon":-87.2068,"population":850848},{"id":"1838716","name":"Bucheon-si","countryIso2":"KR","subdivisionId":"KR-13","lat":37.4989,"lon":126.7831,"population":850731},{"id":"4509177","name":"Columbus","countryIso2":"US","subdivisionId":"US-OH","lat":39.9612,"lon":-82.9988,"population":850106},{"id":"472045","name":"Voronezh","countryIso2":"RU","subdivisionId":"RU-86","lat":51.672,"lon":39.1843,"population":848752},{"id":"1258526","name":"Ranchi","countryIso2":"IN","subdivisionId":"IN-38","lat":23.3432,"lon":85.3094,"population":846454},{"id":"2028462","name":"Ulan Bator","countryIso2":"MN","subdivisionId":"MN-20","lat":47.9077,"lon":106.8832,"population":844818},{"id":"1821940","name":"Takeo","countryIso2":"KH","subdivisionId":"KH-19","lat":10.9908,"lon":104.785,"population":843931},{"id":"144448","name":"Ahvaz","countryIso2":"IR","subdivisionId":"IR-15","lat":31.319,"lon":48.6842,"population":841145},{"id":"3947322","name":"Arequipa","countryIso2":"PE","subdivisionId":"PE-04","lat":-16.3989,"lon":-71.535,"population":841130},{"id":"1633419","name":"Padang","countryIso2":"ID","subdivisionId":"ID-24","lat":-0.9492,"lon":100.3543,"population":840352},{"id":"1269920","name":"Hubli","countryIso2":"IN","subdivisionId":"IN-19","lat":15.3478,"lon":75.1338,"population":840214},{"id":"1785412","name":"Zhabei","countryIso2":"CN","subdivisionId":"CN-23","lat":31.2586,"lon":121.4597,"population":840000},{"id":"2542997","name":"Marrakesh","countryIso2":"MA","subdivisionId":"MA-07","lat":31.6342,"lon":-7.9999,"population":839296},{"id":"1645528","name":"Denpasar","countryIso2":"ID","subdivisionId":"ID-02","lat":-8.65,"lon":115.2167,"population":834881},{"id":"1771023","name":"Kampung Baru Subang","countryIso2":"MY","subdivisionId":"MY-12","lat":3.15,"lon":101.5333,"population":833571},{"id":"4691930","name":"Fort Worth","countryIso2":"US","subdivisionId":"US-TX","lat":32.7254,"lon":-97.3208,"population":833319},{"id":"4259418","name":"Indianapolis","countryIso2":"US","subdivisionId":"US-IN","lat":39.7684,"lon":-86.158,"population":829718},{"id":"4460243","name":"Charlotte","countryIso2":"US","subdivisionId":"US-NC","lat":35.2271,"lon":-80.8431,"population":827097},{"id":"3464374","name":"Duque de Caxias","countryIso2":"BR","subdivisionId":"BR-21","lat":-22.7856,"lon":-43.3117,"population":818329},{"id":"2335953","name":"Jos","countryIso2":"NG","subdivisionId":"NG-49","lat":9.9285,"lon":8.8921,"population":816824},{"id":"2509954","name":"Valencia","countryIso2":"ES","subdivisionId":"ES-60","lat":39.4698,"lon":-0.3774,"population":814208},{"id":"2337639","name":"Ilorin","countryIso2":"NG","subdivisionId":"NG-30","lat":8.4966,"lon":4.5421,"population":814192},{"id":"3946083","name":"Callao","countryIso2":"PE","subdivisionId":"PE-07","lat":-12.0566,"lon":-77.1181,"population":813264},{"id":"3911925","name":"La Paz","countryIso2":"BO","subdivisionId":"BO-04","lat":-16.5,"lon":-68.15,"population":812799},{"id":"6094817","name":"Ottawa","countryIso2":"CA","subdivisionId":"CA-08","lat":45.4112,"lon":-75.6981,"population":812129},{"id":"3648522","name":"Barquisimeto","countryIso2":"VE","subdivisionId":"VE-13","lat":10.0647,"lon":-69.357,"population":809490},{"id":"4014338","name":"Chihuahua","countryIso2":"MX","subdivisionId":"MX-06","lat":28.6353,"lon":-106.0889,"population":809232},{"id":"1799869","name":"Nanning","countryIso2":"CN","subdivisionId":"CN-16","lat":22.8167,"lon":108.3167,"population":803788},{"id":"2409306","name":"Freetown","countryIso2":"SL","subdivisionId":"SL-04","lat":8.4871,"lon":-13.2356,"population":802639},{"id":"1732752","name":"Johor Bahru","countryIso2":"MY","subdivisionId":"MY-01","lat":1.4655,"lon":103.7578,"population":802489},{"id":"281184","name":"Jerusalem","countryIso2":"IL","subdivisionId":"IL-06","lat":31.769,"lon":35.2163,"population":801000},{"id":"1624917","name":"Bandar Lampung","countryIso2":"ID","subdivisionId":"ID-15","lat":-5.4292,"lon":105.2611,"population":800348},{"id":"1648473","name":"Bogor","countryIso2":"ID","subdivisionId":"ID-30","lat":-6.5944,"lon":106.7892,"population":800000},{"id":"1261809","name":"Narela","countryIso2":"IN","subdivisionId":"IN-07","lat":28.8527,"lon":77.0929,"population":800000},{"id":"186301","name":"Mombasa","countryIso2":"KE","subdivisionId":"KE-37","lat":-4.0547,"lon":39.6636,"population":799668},{"id":"1717512","name":"Cebu City","countryIso2":"PH","subdivisionId":"PH-07","lat":10.3167,"lon":123.8907,"population":798634},{"id":"287286","name":"Muscat","countryIso2":"OM","subdivisionId":"OM-06","lat":23.5841,"lon":58.4078,"population":797000},{"id":"687700","name":"Zaporizhia","countryIso2":"UA","subdivisionId":"UA-26","lat":47.8229,"lon":35.1903,"population":796217},{"id":"2995469","name":"Marseille","countryIso2":"FR","subdivisionId":"FR-93","lat":43.297,"lon":5.3811,"population":794811},{"id":"250090","name":"Zarqa","countryIso2":"JO","subdivisionId":"JO-17","lat":32.0728,"lon":36.088,"population":792665},{"id":"3522790","name":"Naucalpan de Juárez","countryIso2":"MX","subdivisionId":"MX-15","lat":19.4785,"lon":-99.2396,"population":792211},{"id":"6955677","name":"Çankaya","countryIso2":"TR","subdivisionId":"TR-68","lat":39.9179,"lon":32.8627,"population":792189},{"id":"1167460","name":"Rahim Yar Khan","countryIso2":"PK","subdivisionId":"PK-04","lat":28.4199,"lon":70.3035,"population":788915},{"id":"10630176","name":"Pasragad Branch","countryIso2":"IR","subdivisionId":"IR-09","lat":34.7777,"lon":48.4717,"population":787878},{"id":"2474141","name":"Boumerdas","countryIso2":"DZ","subdivisionId":"DZ-40","lat":36.7664,"lon":3.4772,"population":786499},{"id":"1268782","name":"Jalandhar","countryIso2":"IN","subdivisionId":"IN-23","lat":31.3256,"lon":75.5792,"population":785178},{"id":"1254163","name":"Thiruvananthapuram","countryIso2":"IN","subdivisionId":"IN-13","lat":8.4855,"lon":76.9492,"population":784153},{"id":"1853195","name":"Sakai","countryIso2":"JP","subdivisionId":"JP-32","lat":34.5833,"lon":135.4667,"population":782339},{"id":"1785294","name":"Anyang","countryIso2":"CN","subdivisionId":"CN-09","lat":36.096,"lon":114.3828,"population":781129},{"id":"3836873","name":"San Miguel de Tucumán","countryIso2":"AR","subdivisionId":"AR-24","lat":-26.8241,"lon":-65.2226,"population":781023},{"id":"2394819","name":"Cotonou","countryIso2":"BJ","subdivisionId":"BJ-14","lat":6.3654,"lon":2.4183,"population":780000},{"id":"1257629","name":"Salem","countryIso2":"IN","subdivisionId":"IN-25","lat":11.6538,"lon":78.1554,"population":778396},{"id":"3523349","name":"Mérida","countryIso2":"MX","subdivisionId":"MX-31","lat":20.9754,"lon":-89.617,"population":777615},{"id":"1254388","name":"Tiruchirappalli","countryIso2":"IN","subdivisionId":"IN-25","lat":10.8155,"lon":78.6965,"population":775484},{"id":"169577","name":"Homs","countryIso2":"SY","subdivisionId":"SY-11","lat":34.7268,"lon":36.7234,"population":775404},{"id":"2036892","name":"Hohhot","countryIso2":"CN","subdivisionId":"CN-20","lat":40.8106,"lon":111.6522,"population":774477},{"id":"2440485","name":"Niamey","countryIso2":"NE","subdivisionId":"NE-08","lat":13.5137,"lon":2.1098,"population":774235},{"id":"1668355","name":"Tainan","countryIso2":"TW","subdivisionId":"TW-04","lat":22.9908,"lon":120.2133,"population":771235},{"id":"1817720","name":"Shangyu","countryIso2":"CN","subdivisionId":"CN-02","lat":30.0156,"lon":120.8711,"population":770000},{"id":"3093133","name":"Łódź","countryIso2":"PL","subdivisionId":"PL-74","lat":51.7706,"lon":19.4739,"population":768755},{"id":"110336","name":"Dammam","countryIso2":"SA","subdivisionId":"SA-06","lat":26.4344,"lon":50.1033,"population":768602},{"id":"1788852","name":"Xining","countryIso2":"CN","subdivisionId":"CN-06","lat":36.6255,"lon":101.7574,"population":767531},{"id":"23814","name":"Kahrīz","countryIso2":"IR","subdivisionId":"IR-13","lat":34.3838,"lon":47.0553,"population":766706},{"id":"1266049","name":"Kota","countryIso2":"IN","subdivisionId":"IN-24","lat":25.1825,"lon":75.8391,"population":763088},{"id":"3394023","name":"Natal","countryIso2":"BR","subdivisionId":"BR-22","lat":-5.795,"lon":-35.2094,"population":763043},{"id":"1275817","name":"Bhubaneshwar","countryIso2":"IN","subdivisionId":"IN-21","lat":20.2724,"lon":85.8339,"population":762243},{"id":"1797595","name":"Qinhuangdao","countryIso2":"CN","subdivisionId":"CN-10","lat":39.9317,"lon":119.5883,"population":759718},{"id":"1808370","name":"Hengyang","countryIso2":"CN","subdivisionId":"CN-11","lat":26.8895,"lon":112.6189,"population":759602},{"id":"323777","name":"Antalya","countryIso2":"TR","subdivisionId":"TR-07","lat":36.9081,"lon":30.6956,"population":758188},{"id":"3094802","name":"Kraków","countryIso2":"PL","subdivisionId":"PL-77","lat":50.0614,"lon":19.9366,"population":755050},{"id":"1279017","name":"Alīgarh","countryIso2":"IN","subdivisionId":"IN-36","lat":27.8815,"lon":78.0746,"population":753207},{"id":"1583992","name":"Da Nang","countryIso2":"VN","subdivisionId":"VN-78","lat":16.0678,"lon":108.2208,"population":752493},{"id":"965301","name":"Pietermaritzburg","countryIso2":"ZA","subdivisionId":"ZA-02","lat":-29.6168,"lon":30.3928,"population":750845},{"id":"2365267","name":"Lomé","countryIso2":"TG","subdivisionId":"TG-24","lat":6.1287,"lon":1.2215,"population":749700},{"id":"3691175","name":"Trujillo","countryIso2":"PE","subdivisionId":"PE-13","lat":-8.116,"lon":-79.03,"population":747450},{"id":"1636722","name":"Malang","countryIso2":"ID","subdivisionId":"ID-08","lat":-7.9797,"lon":112.6304,"population":746716},{"id":"3645528","name":"Ciudad Guayana","countryIso2":"VE","subdivisionId":"VE-06","lat":8.3512,"lon":-62.641,"population":746535},{"id":"1277013","name":"Bareilly","countryIso2":"IN","subdivisionId":"IN-36","lat":28.3668,"lon":79.4317,"population":745435},{"id":"202061","name":"Kigali","countryIso2":"RW","subdivisionId":"RW-12","lat":-1.9499,"lon":30.0589,"population":745261},{"id":"3386496","name":"Teresina","countryIso2":"BR","subdivisionId":"BR-20","lat":-5.0892,"lon":-42.8019,"population":744512},{"id":"1788572","name":"Xinxiang","countryIso2":"CN","subdivisionId":"CN-09","lat":35.1903,"lon":113.8015,"population":743601},{"id":"3449344","name":"São Bernardo do Campo","countryIso2":"BR","subdivisionId":"BR-27","lat":-23.6939,"lon":-46.565,"population":743372},{"id":"2036986","name":"Hegang","countryIso2":"CN","subdivisionId":"CN-08","lat":47.3512,"lon":130.3001,"population":743307},{"id":"456172","name":"Riga","countryIso2":"LV","subdivisionId":"LV-25","lat":56.946,"lon":24.1059,"population":742572},{"id":"2759794","name":"Amsterdam","countryIso2":"NL","subdivisionId":"NL-07","lat":52.374,"lon":4.8897,"population":741636},{"id":"2325200","name":"Oyo","countryIso2":"NG","subdivisionId":"NG-32","lat":7.8526,"lon":3.9313,"population":736072},{"id":"1167528","name":"Quetta","countryIso2":"PK","subdivisionId":"PK-02","lat":30.1841,"lon":67.0014,"population":733675},{"id":"2641170","name":"Nottingham","countryIso2":"GB","subdivisionId":"GB-ENG","lat":52.9536,"lon":-1.1505,"population":729977},{"id":"3467747","name":"Campo Grande","countryIso2":"BR","subdivisionId":"BR-11","lat":-20.4428,"lon":-54.6464,"population":729151},{"id":"162183","name":"Ashgabat","countryIso2":"TM","subdivisionId":"TM-S","lat":37.95,"lon":58.3833,"population":727700},{"id":"3514663","name":"Álvaro Obregón","countryIso2":"MX","subdivisionId":"MX-09","lat":19.3587,"lon":-99.2033,"population":726664},{"id":"1169607","name":"Muzaffarābād","countryIso2":"PK","subdivisionId":"PK-06","lat":34.37,"lon":73.4708,"population":725000},{"id":"751324","name":"Bağcılar","countryIso2":"TR","subdivisionId":"TR-34","lat":41.039,"lon":28.8567,"population":724270},{"id":"98463","name":"As Sulaymānīyah","countryIso2":"IQ","subdivisionId":"IQ-05","lat":35.565,"lon":45.4329,"population":723170},{"id":"3985606","name":"San Luis Potosí","countryIso2":"MX","subdivisionId":"MX-24","lat":22.1498,"lon":-100.9792,"population":722772},{"id":"4019233","name":"Aguascalientes","countryIso2":"MX","subdivisionId":"MX-01","lat":21.8823,"lon":-102.2826,"population":722250},{"id":"3685533","name":"Cúcuta","countryIso2":"CO","subdivisionId":"CO-21","lat":7.8939,"lon":-72.5078,"population":721398},{"id":"1262801","name":"Morādābād","countryIso2":"IN","subdivisionId":"IN-36","lat":28.8389,"lon":78.7768,"population":721139},{"id":"2427123","name":"N'Djamena","countryIso2":"TD","subdivisionId":"TD-21","lat":12.1067,"lon":15.0444,"population":721081},{"id":"1804540","name":"Langfang","countryIso2":"CN","subdivisionId":"CN-10","lat":39.5097,"lon":116.6947,"population":720119},{"id":"1783873","name":"Zhumadian","countryIso2":"CN","subdivisionId":"CN-09","lat":32.9794,"lon":114.0294,"population":720000},{"id":"1787093","name":"Yantai","countryIso2":"CN","subdivisionId":"CN-25","lat":37.4765,"lon":121.4408,"population":719332},{"id":"702550","name":"Lviv","countryIso2":"UA","subdivisionId":"UA-15","lat":49.8383,"lon":24.0232,"population":717803},{"id":"4004898","name":"Hermosillo","countryIso2":"MX","subdivisionId":"MX-26","lat":29.1026,"lon":-110.9773,"population":715061},{"id":"5946768","name":"Edmonton","countryIso2":"CA","subdivisionId":"CA-01","lat":53.5501,"lon":-113.4687,"population":712391},{"id":"1845457","name":"Jeonju","countryIso2":"KR","subdivisionId":"KR-03","lat":35.8219,"lon":127.1489,"population":711424},{"id":"3988086","name":"Saltillo","countryIso2":"MX","subdivisionId":"MX-07","lat":25.4232,"lon":-101.0053,"population":709671},{"id":"1783763","name":"Zhuzhou","countryIso2":"CN","subdivisionId":"CN-11","lat":27.8333,"lon":113.15,"population":709358},{"id":"8504423","name":"Subang Jaya","countryIso2":"MY","subdivisionId":"MY-12","lat":3.0438,"lon":101.5806,"population":708296},{"id":"1275901","name":"Bhiwandi","countryIso2":"IN","subdivisionId":"IN-16","lat":19.3002,"lon":73.0588,"population":707035},{"id":"1631761","name":"Pekanbaru","countryIso2":"ID","subdivisionId":"ID-37","lat":0.5167,"lon":101.4417,"population":703956},{"id":"2510911","name":"Sevilla","countryIso2":"ES","subdivisionId":"ES-51","lat":37.3828,"lon":-5.9732,"population":703206},{"id":"482283","name":"Tol’yatti","countryIso2":"RU","subdivisionId":"RU-65","lat":53.5303,"lon":49.3461,"population":702879},{"id":"3397838","name":"Jaboatão","countryIso2":"BR","subdivisionId":"BR-30","lat":-8.1803,"lon":-35.0014,"population":702621},{"id":"1851717","name":"Shizuoka","countryIso2":"JP","subdivisionId":"JP-37","lat":34.9833,"lon":138.3833,"population":701561},{"id":"7874116","name":"Santo Domingo Oeste","countryIso2":"DO","subdivisionId":"DO-37","lat":18.5,"lon":-70,"population":701269},{"id":"1185128","name":"Rājshāhi","countryIso2":"BD","subdivisionId":"BD-83","lat":24.374,"lon":88.6011,"population":700133},{"id":"8601412","name":"Santo Domingo Este","countryIso2":"DO","subdivisionId":"DO-37","lat":18.4885,"lon":-69.8571,"population":700000},{"id":"8224624","name":"City of Balikpapan","countryIso2":"ID","subdivisionId":"ID-14","lat":-1.242,"lon":116.8942,"population":700000},{"id":"1183105","name":"Battagram","countryIso2":"PK","subdivisionId":"PK-03","lat":34.6772,"lon":73.0233,"population":700000},{"id":"1815463","name":"Changzhi","countryIso2":"CN","subdivisionId":"CN-24","lat":35.2089,"lon":111.7386,"population":699514},{"id":"894701","name":"Bulawayo","countryIso2":"ZW","subdivisionId":"ZW-09","lat":-20.15,"lon":28.5833,"population":699385},{"id":"3186886","name":"Zagreb","countryIso2":"HR","subdivisionId":"HR-21","lat":45.8144,"lon":15.978,"population":698966},{"id":"2561668","name":"Agadir","countryIso2":"MA","subdivisionId":"MA-09","lat":30.4202,"lon":-9.5981,"population":698310},{"id":"3191281","name":"Sarajevo","countryIso2":"BA","subdivisionId":"BA-01","lat":43.8486,"lon":18.3564,"population":696731},{"id":"3432043","name":"La Plata","countryIso2":"AR","subdivisionId":"AR-01","lat":-34.9214,"lon":-57.9545,"population":694167},{"id":"2464470","name":"Tunis","countryIso2":"TN","subdivisionId":"TN-36","lat":36.819,"lon":10.1658,"population":693210},{"id":"2033196","name":"Zhangjiakou","countryIso2":"CN","subdivisionId":"CN-10","lat":40.81,"lon":114.8794,"population":692602},{"id":"1783745","name":"Zigong","countryIso2":"CN","subdivisionId":"CN-32","lat":29.3416,"lon":104.7769,"population":689961},{"id":"3996069","name":"Mexicali","countryIso2":"MX","subdivisionId":"MX-02","lat":32.6278,"lon":-115.4545,"population":689775},{"id":"2037346","name":"Fuxin","countryIso2":"CN","subdivisionId":"CN-19","lat":42.0156,"lon":121.6589,"population":689050},{"id":"2343279","name":"Enugu","countryIso2":"NG","subdivisionId":"NG-47","lat":6.4413,"lon":7.4988,"population":688862},{"id":"2530335","name":"Tangier","countryIso2":"MA","subdivisionId":"MA-01","lat":35.7673,"lon":-5.7998,"population":688356},{"id":"1807234","name":"Huangshi","countryIso2":"CN","subdivisionId":"CN-12","lat":30.2471,"lon":115.0481,"population":688090},{"id":"2036113","name":"Liaoyang","countryIso2":"CN","subdivisionId":"CN-19","lat":41.2719,"lon":123.1731,"population":687890},{"id":"2638077","name":"Sheffield","countryIso2":"GB","subdivisionId":"GB-ENG","lat":53.383,"lon":-1.4659,"population":685368},{"id":"5809844","name":"Seattle","countryIso2":"US","subdivisionId":"US-WA","lat":47.6062,"lon":-122.3321,"population":684451},{"id":"5419384","name":"Denver","countryIso2":"US","subdivisionId":"US-CO","lat":39.7392,"lon":-104.9847,"population":682545},{"id":"5520993","name":"El Paso","countryIso2":"US","subdivisionId":"US-TX","lat":31.7587,"lon":-106.4869,"population":681124},{"id":"1858421","name":"Kumamoto","countryIso2":"JP","subdivisionId":"JP-21","lat":32.8059,"lon":130.6918,"population":680423},{"id":"1258980","name":"Raipur","countryIso2":"IN","subdivisionId":"IN-37","lat":21.2333,"lon":81.6333,"population":679995},{"id":"1713022","name":"General Santos","countryIso2":"PH","subdivisionId":"PH-12","lat":6.1128,"lon":125.1717,"population":679588},{"id":"1221874","name":"Dushanbe","countryIso2":"TJ","subdivisionId":"TJ-04","lat":38.5358,"lon":68.7791,"population":679400},{"id":"3455775","name":"Osasco","countryIso2":"BR","subdivisionId":"BR-27","lat":-23.5325,"lon":-46.7917,"population":677856},{"id":"4990729","name":"Detroit","countryIso2":"US","subdivisionId":"US-MI","lat":42.3314,"lon":-83.0457,"population":677116},{"id":"4012176","name":"Culiacán","countryIso2":"MX","subdivisionId":"MX-25","lat":24.7903,"lon":-107.3878,"population":675773},{"id":"1039854","name":"Matola","countryIso2":"MZ","subdivisionId":"MZ-04","lat":-25.9622,"lon":32.4589,"population":675422},{"id":"3104324","name":"Zaragoza","countryIso2":"ES","subdivisionId":"ES-52","lat":41.6561,"lon":-0.8773,"population":674317},{"id":"1270927","name":"Gorakhpur","countryIso2":"IN","subdivisionId":"IN-36","lat":26.7663,"lon":83.3689,"population":674246},{"id":"1790492","name":"Xiangtan","countryIso2":"CN","subdivisionId":"CN-11","lat":27.85,"lon":112.9,"population":674189},{"id":"4005492","name":"Guadalupe","countryIso2":"MX","subdivisionId":"MX-19","lat":25.6768,"lon":-100.2565,"population":673616},{"id":"3533462","name":"Acapulco de Juárez","countryIso2":"MX","subdivisionId":"MX-12","lat":16.8494,"lon":-99.9089,"population":673479},{"id":"1734634","name":"Ipoh","countryIso2":"MY","subdivisionId":"MY-07","lat":4.5841,"lon":101.0829,"population":673318},{"id":"6075357","name":"Mississauga","countryIso2":"CA","subdivisionId":"CA-08","lat":43.5789,"lon":-79.6583,"population":668549},{"id":"4930956","name":"Boston","countryIso2":"US","subdivisionId":"US-MA","lat":42.3584,"lon":-71.0598,"population":667137},{"id":"1798422","name":"Puyang Chengguanzhen","countryIso2":"CN","subdivisionId":"CN-09","lat":35.7051,"lon":115.0141,"population":666322},{"id":"1799722","name":"Nantong","countryIso2":"CN","subdivisionId":"CN-04","lat":32.0303,"lon":120.8747,"population":666251},{"id":"2035715","name":"Mudanjiang","countryIso2":"CN","subdivisionId":"CN-08","lat":44.5833,"lon":129.6,"population":665915},{"id":"264371","name":"Athens","countryIso2":"GR","subdivisionId":"GR-ESYE31","lat":37.9838,"lon":23.7278,"population":664046},{"id":"3449701","name":"Santo André","countryIso2":"BR","subdivisionId":"BR-27","lat":-23.6639,"lon":-46.5383,"population":662373},{"id":"2377450","name":"Nouakchott","countryIso2":"MR","subdivisionId":null,"lat":18.0858,"lon":-15.9785,"population":661400},{"id":"2255414","name":"Pointe-Noire","countryIso2":"CG","subdivisionId":"CG-15","lat":-4.7761,"lon":11.8635,"population":659084},{"id":"4641239","name":"Memphis","countryIso2":"US","subdivisionId":"US-TN","lat":35.1495,"lon":-90.049,"population":655770},{"id":"3515431","name":"Tlalnepantla","countryIso2":"MX","subdivisionId":"MX-15","lat":19.5401,"lon":-99.1954,"population":653410},{"id":"703845","name":"Kryvyi Rih","countryIso2":"UA","subdivisionId":"UA-04","lat":47.9097,"lon":33.3804,"population":652380},{"id":"3397277","name":"João Pessoa","countryIso2":"BR","subdivisionId":"BR-17","lat":-7.115,"lon":-34.8631,"population":650883},{"id":"1846918","name":"Ansan-si","countryIso2":"KR","subdivisionId":"KR-13","lat":37.3236,"lon":126.8219,"population":650728},{"id":"88319","name":"Benghazi","countryIso2":"LY","subdivisionId":"LY-69","lat":32.1149,"lon":20.0686,"population":650629},{"id":"2925533","name":"Frankfurt am Main","countryIso2":"DE","subdivisionId":"DE-05","lat":50.1155,"lon":8.6842,"population":650000},{"id":"542420","name":"Krasnodar","countryIso2":"RU","subdivisionId":"RU-38","lat":45.0448,"lon":38.976,"population":649851},{"id":"1809498","name":"Guilin","countryIso2":"CN","subdivisionId":"CN-16","lat":25.2819,"lon":110.2864,"population":649352},{"id":"2523920","name":"Palermo","countryIso2":"IT","subdivisionId":"IT-15","lat":38.1321,"lon":13.3356,"population":648260},{"id":"1248991","name":"Colombo","countryIso2":"LK","subdivisionId":"LK-36","lat":6.9355,"lon":79.8487,"population":648034},{"id":"927967","name":"Lilongwe","countryIso2":"MW","subdivisionId":"MW-C","lat":-13.9669,"lon":33.7873,"population":646750},{"id":"2485926","name":"Oran","countryIso2":"DZ","subdivisionId":"DZ-09","lat":35.6991,"lon":-0.6359,"population":645984},{"id":"316541","name":"Diyarbakır","countryIso2":"TR","subdivisionId":"TR-21","lat":37.9136,"lon":40.2172,"population":644763},{"id":"1684308","name":"Taguig","countryIso2":"PH","subdivisionId":"PH-NCR","lat":14.5243,"lon":121.0792,"population":644473},{"id":"4645421","name":"New South Memphis","countryIso2":"US","subdivisionId":"US-TN","lat":35.0868,"lon":-90.0568,"population":641608},{"id":"479123","name":"Ulyanovsk","countryIso2":"RU","subdivisionId":"RU-81","lat":54.3282,"lon":48.3866,"population":640680},{"id":"1173055","name":"Kotli","countryIso2":"PK","subdivisionId":"PK-06","lat":33.5184,"lon":73.9022,"population":640000},{"id":"1854383","name":"Okayama","countryIso2":"JP","subdivisionId":"JP-31","lat":34.65,"lon":133.9333,"population":639652},{"id":"1784990","name":"Zhanjiang","countryIso2":"CN","subdivisionId":"CN-30","lat":21.2815,"lon":110.3427,"population":637790},{"id":"285839","name":"Al Aḩmadī","countryIso2":"KW","subdivisionId":"KW-04","lat":29.0769,"lon":48.0839,"population":637411},{"id":"1621177","name":"Yogyakarta","countryIso2":"ID","subdivisionId":"ID-10","lat":-7.8014,"lon":110.3647,"population":636660},{"id":"6091104","name":"North York","countryIso2":"CA","subdivisionId":"CA-08","lat":43.7668,"lon":-79.4163,"population":636000},{"id":"618426","name":"Chisinau","countryIso2":"MD","subdivisionId":"MD-57","lat":47.0056,"lon":28.8575,"population":635994},{"id":"3081368","name":"Wrocław","countryIso2":"PL","subdivisionId":"PL-72","lat":51.1,"lon":17.0333,"population":634893},{"id":"1845604","name":"Cheongju-si","countryIso2":"KR","subdivisionId":"KR-05","lat":36.6372,"lon":127.4897,"population":634596},{"id":"1846898","name":"Anyang-si","countryIso2":"KR","subdivisionId":"KR-13","lat":37.3925,"lon":126.9269,"population":634367},{"id":"2477461","name":"Tébessa","countryIso2":"DZ","subdivisionId":"DZ-33","lat":35.4042,"lon":8.1242,"population":634332},{"id":"1784642","name":"Zhenjiang","countryIso2":"CN","subdivisionId":"CN-04","lat":32.2109,"lon":119.4551,"population":632552},{"id":"5746545","name":"Portland","countryIso2":"US","subdivisionId":"US-OR","lat":45.5234,"lon":-122.6762,"population":632309},{"id":"6183235","name":"Winnipeg","countryIso2":"CA","subdivisionId":"CA-03","lat":49.8844,"lon":-97.147,"population":632063},{"id":"2037886","name":"Dandong","countryIso2":"CN","subdivisionId":"CN-19","lat":40.1292,"lon":124.3947,"population":631973},{"id":"4544349","name":"Oklahoma City","countryIso2":"US","subdivisionId":"US-OK","lat":35.4676,"lon":-97.5164,"population":631346},{"id":"554840","name":"Izhevsk","countryIso2":"RU","subdivisionId":"RU-80","lat":56.8498,"lon":53.2045,"population":631038},{"id":"6317344","name":"Jaboatão dos Guararapes","countryIso2":"BR","subdivisionId":"BR-30","lat":-8.1128,"lon":-35.0147,"population":630008},{"id":"1795874","name":"Shaoguan","countryIso2":"CN","subdivisionId":"CN-30","lat":24.8,"lon":113.5833,"population":628749},{"id":"1787746","name":"Yancheng","countryIso2":"CN","subdivisionId":"CN-04","lat":33.3575,"lon":120.1573,"population":628441},{"id":"3531673","name":"Cancún","countryIso2":"MX","subdivisionId":"MX-23","lat":21.1743,"lon":-86.8466,"population":628306},{"id":"3465624","name":"Contagem","countryIso2":"BR","subdivisionId":"BR-15","lat":-19.9317,"lon":-44.0536,"population":627123},{"id":"3991164","name":"Santiago de Querétaro","countryIso2":"MX","subdivisionId":"MX-22","lat":20.5881,"lon":-100.3881,"population":626495},{"id":"1275971","name":"Bhilai","countryIso2":"IN","subdivisionId":"IN-37","lat":21.2092,"lon":81.4285,"population":625138},{"id":"2035513","name":"Panshan","countryIso2":"CN","subdivisionId":"CN-19","lat":41.1881,"lon":122.0494,"population":625040},{"id":"223817","name":"Djibouti","countryIso2":"DJ","subdivisionId":"DJ-07","lat":11.589,"lon":43.145,"population":623891},{"id":"5506956","name":"Las Vegas","countryIso2":"US","subdivisionId":"US-NV","lat":36.175,"lon":-115.1372,"population":623747},{"id":"4347778","name":"Baltimore","countryIso2":"US","subdivisionId":"US-MD","lat":39.2904,"lon":-76.6122,"population":621849},{"id":"128226","name":"Kermanshah","countryIso2":"IR","subdivisionId":"IR-13","lat":34.3142,"lon":47.065,"population":621100},{"id":"3530139","name":"Coyoacán","countryIso2":"MX","subdivisionId":"MX-09","lat":19.3467,"lon":-99.1617,"population":620416},{"id":"3451328","name":"Ribeirão Preto","countryIso2":"BR","subdivisionId":"BR-27","lat":-21.1775,"lon":-47.8103,"population":619746},{"id":"79415","name":"Al Ḩudaydah","countryIso2":"YE","subdivisionId":"YE-08","lat":14.7978,"lon":42.9545,"population":617871},{"id":"7290466","name":"Pasig City","countryIso2":"PH","subdivisionId":"PH-NCR","lat":14.5869,"lon":121.0614,"population":617301},{"id":"2654675","name":"Bristol","countryIso2":"GB","subdivisionId":"GB-ENG","lat":51.4552,"lon":-2.5966,"population":617280},{"id":"1269300","name":"Jamshedpur","countryIso2":"IN","subdivisionId":"IN-38","lat":22.8028,"lon":86.1855,"population":616338},{"id":"1809078","name":"Haikou","countryIso2":"CN","subdivisionId":"CN-31","lat":20.0458,"lon":110.3417,"population":615835},{"id":"70225","name":"Ta‘izz","countryIso2":"YE","subdivisionId":"YE-25","lat":13.5795,"lon":44.0209,"population":615222},{"id":"3448636","name":"São José dos Campos","countryIso2":"BR","subdivisionId":"BR-27","lat":-23.1794,"lon":-45.8869,"population":613764},{"id":"3517270","name":"Santa María Chimalhuacán","countryIso2":"MX","subdivisionId":"MX-15","lat":19.4216,"lon":-98.9504,"population":612383},{"id":"1793505","name":"Taizhou","countryIso2":"CN","subdivisionId":"CN-04","lat":32.4907,"lon":119.9081,"population":612356},{"id":"1788927","name":"Xingtai","countryIso2":"CN","subdivisionId":"CN-10","lat":37.0631,"lon":114.4942,"population":611739},{"id":"1275248","name":"Borivli","countryIso2":"IN","subdivisionId":"IN-16","lat":19.235,"lon":72.8598,"population":609617},{"id":"3981254","name":"Torreón","countryIso2":"MX","subdivisionId":"MX-07","lat":25.5439,"lon":-103.419,"population":608836},{"id":"468902","name":"Yaroslavl","countryIso2":"RU","subdivisionId":"RU-88","lat":57.6299,"lon":39.8737,"population":606730},{"id":"1020098","name":"Benoni","countryIso2":"ZA","subdivisionId":"ZA-06","lat":-26.1885,"lon":28.3208,"population":605344},{"id":"1863289","name":"Hamamatsu","countryIso2":"JP","subdivisionId":"JP-37","lat":34.7,"lon":137.7333,"population":605098},{"id":"1273874","name":"Cochin","countryIso2":"IN","subdivisionId":"IN-13","lat":9.9399,"lon":76.2602,"population":604696},{"id":"2036427","name":"Jinzhou","countryIso2":"CN","subdivisionId":"CN-19","lat":41.1078,"lon":121.1417,"population":604269},{"id":"1278718","name":"Amrāvati","countryIso2":"IN","subdivisionId":"IN-16","lat":20.9333,"lon":77.75,"population":603837},{"id":"292968","name":"Abu Dhabi","countryIso2":"AE","subdivisionId":"AE-01","lat":24.4512,"lon":54.397,"population":603492},{"id":"1581298","name":"Haiphong","countryIso2":"VN","subdivisionId":"VN-13","lat":20.8648,"lon":106.6835,"population":602695},{"id":"4140963","name":"Washington, D.C.","countryIso2":"US","subdivisionId":"US-DC","lat":38.8951,"lon":-77.0364,"population":601723},{"id":"1176615","name":"Islamabad","countryIso2":"PK","subdivisionId":"PK-08","lat":33.7215,"lon":73.0433,"population":601600},{"id":"94787","name":"Kirkuk","countryIso2":"IQ","subdivisionId":"IQ-13","lat":35.4681,"lon":44.3922,"population":601433},{"id":"1257416","name":"Sāngli","countryIso2":"IN","subdivisionId":"IN-16","lat":16.8544,"lon":74.5642,"population":601214},{"id":"5263045","name":"Milwaukee","countryIso2":"US","subdivisionId":"US-WI","lat":43.0389,"lon":-87.9065,"population":600155},{"id":"6173331","name":"Vancouver","countryIso2":"CA","subdivisionId":"CA-02","lat":49.2497,"lon":-123.1193,"population":600000},{"id":"6948711","name":"Scarborough","countryIso2":"CA","subdivisionId":"CA-08","lat":43.7722,"lon":-79.2567,"population":600000},{"id":"2034786","name":"Shuangyashan","countryIso2":"CN","subdivisionId":"CN-08","lat":46.6361,"lon":131.1539,"population":600000},{"id":"1626801","name":"Situbondo","countryIso2":"ID","subdivisionId":"ID-08","lat":-7.7062,"lon":114.0098,"population":600000},{"id":"1510853","name":"Barnaul","countryIso2":"RU","subdivisionId":"RU-04","lat":53.3606,"lon":83.7636,"population":599579},{"id":"2747891","name":"Rotterdam","countryIso2":"NL","subdivisionId":"NL-11","lat":51.9225,"lon":4.4792,"population":598199},{"id":"3995402","name":"Morelia","countryIso2":"MX","subdivisionId":"MX-16","lat":19.7008,"lon":-101.1844,"population":597511},{"id":"1802204","name":"Luancheng","countryIso2":"CN","subdivisionId":"CN-10","lat":37.8792,"lon":114.6517,"population":597130},{"id":"118743","name":"Rasht","countryIso2":"IR","subdivisionId":"IR-08","lat":37.2761,"lon":49.5886,"population":594590},{"id":"2352947","name":"Abeokuta","countryIso2":"NG","subdivisionId":"NG-16","lat":7.1557,"lon":3.3451,"population":593100},{"id":"2928810","name":"Essen","countryIso2":"DE","subdivisionId":"DE-07","lat":51.4566,"lon":7.0123,"population":593085},{"id":"308464","name":"Kayseri","countryIso2":"TR","subdivisionId":"TR-38","lat":38.7322,"lon":35.4853,"population":592840},{"id":"2648579","name":"Glasgow","countryIso2":"GB","subdivisionId":"GB-SCT","lat":55.8652,"lon":-4.2576,"population":591620},{"id":"2165087","name":"Gold Coast","countryIso2":"AU","subdivisionId":"AU-04","lat":-28.0003,"lon":153.4309,"population":591473},{"id":"2033370","name":"Yingkou","countryIso2":"CN","subdivisionId":"CN-19","lat":40.6648,"lon":122.2283,"population":591159},{"id":"2352778","name":"Abuja","countryIso2":"NG","subdivisionId":"NG-11","lat":9.0579,"lon":7.4951,"population":590400},{"id":"1707174","name":"Las Piñas","countryIso2":"PH","subdivisionId":"PH-NCR","lat":14.4506,"lon":120.9828,"population":590000},{"id":"1785018","name":"Zhangzhou","countryIso2":"CN","subdivisionId":"CN-07","lat":24.5133,"lon":117.6556,"population":589831},{"id":"2825297","name":"Stuttgart","countryIso2":"DE","subdivisionId":"DE-01","lat":48.7823,"lon":9.177,"population":589793},{"id":"3520339","name":"Reynosa","countryIso2":"MX","subdivisionId":"MX-28","lat":26.0806,"lon":-98.2883,"population":589466},{"id":"2935517","name":"Dortmund","countryIso2":"DE","subdivisionId":"DE-07","lat":51.5149,"lon":7.466,"population":588462},{"id":"2013348","name":"Vladivostok","countryIso2":"RU","subdivisionId":"RU-59","lat":43.1056,"lon":131.8735,"population":587022},{"id":"2023469","name":"Irkutsk","countryIso2":"RU","subdivisionId":"RU-20","lat":52.2978,"lon":104.2964,"population":586695},{"id":"931755","name":"Blantyre","countryIso2":"MW","subdivisionId":"MW-S","lat":-15.785,"lon":35.0085,"population":584877},{"id":"3489297","name":"New Kingston","countryIso2":"JM","subdivisionId":"JM-08","lat":18.0075,"lon":-76.7832,"population":583958},{"id":"738329","name":"Üsküdar","countryIso2":"TR","subdivisionId":"TR-34","lat":41.0227,"lon":29.0137,"population":582666},{"id":"3176219","name":"Genoa","countryIso2":"IT","subdivisionId":"IT-08","lat":44.4048,"lon":8.9444,"population":580223},{"id":"1273780","name":"Cuttack","countryIso2":"IN","subdivisionId":"IN-21","lat":20.465,"lon":85.8793,"population":580000},{"id":"3143244","name":"Oslo","countryIso2":"NO","subdivisionId":"NO-12","lat":59.9127,"lon":10.7461,"population":580000},{"id":"1863440","name":"Hachiōji","countryIso2":"JP","subdivisionId":"JP-40","lat":35.6558,"lon":139.3239,"population":579399},{"id":"2022890","name":"Khabarovsk","countryIso2":"RU","subdivisionId":"RU-30","lat":48.4827,"lon":135.0838,"population":579000},{"id":"2056752","name":"Khabarovsk Vtoroy","countryIso2":"RU","subdivisionId":"RU-30","lat":48.4378,"lon":135.1333,"population":578303},{"id":"2399697","name":"Libreville","countryIso2":"GA","subdivisionId":"GA-01","lat":0.3924,"lon":9.4536,"population":578156},{"id":"128234","name":"Kerman","countryIso2":"IR","subdivisionId":"IR-29","lat":30.2832,"lon":57.0788,"population":577514},{"id":"3698350","name":"Chiclayo","countryIso2":"PE","subdivisionId":"PE-14","lat":-6.7714,"lon":-79.8409,"population":577375},{"id":"121801","name":"Orūmīyeh","countryIso2":"IR","subdivisionId":"IR-01","lat":37.5527,"lon":45.0761,"population":577307},{"id":"7627067","name":"Bahçelievler","countryIso2":"TR","subdivisionId":"TR-34","lat":41.0023,"lon":28.8598,"population":576799},{"id":"1816440","name":"Bengbu","countryIso2":"CN","subdivisionId":"CN-01","lat":32.9408,"lon":117.3608,"population":576648},{"id":"1275665","name":"Bīkaner","countryIso2":"IN","subdivisionId":"IN-24","lat":28.0176,"lon":73.315,"population":576015},{"id":"3981461","name":"Tlaquepaque","countryIso2":"MX","subdivisionId":"MX-14","lat":20.6409,"lon":-103.2933,"population":575942},{"id":"3515428","name":"Tlalpan","countryIso2":"MX","subdivisionId":"MX-09","lat":19.2951,"lon":-99.1621,"population":574577},{"id":"738377","name":"Umraniye","countryIso2":"TR","subdivisionId":"TR-34","lat":41.0164,"lon":29.1248,"population":573265},{"id":"2934246","name":"Düsseldorf","countryIso2":"DE","subdivisionId":"DE-07","lat":51.2217,"lon":6.7762,"population":573057},{"id":"1650213","name":"Banjarmasin","countryIso2":"ID","subdivisionId":"ID-12","lat":-3.3199,"lon":114.5908,"population":572837},{"id":"2711537","name":"Göteborg","countryIso2":"SE","subdivisionId":"SE-28","lat":57.7072,"lon":11.9668,"population":572799},{"id":"1529195","name":"Shihezi","countryIso2":"CN","subdivisionId":"CN-13","lat":44.3023,"lon":86.0369,"population":572772},{"id":"3688465","name":"Bucaramanga","countryIso2":"CO","subdivisionId":"CO-26","lat":7.1254,"lon":-73.1198,"population":571820},{"id":"4951305","name":"South Boston","countryIso2":"US","subdivisionId":"US-MA","lat":42.3334,"lon":-71.0495,"population":571281},{"id":"1735634","name":"Kuching","countryIso2":"MY","subdivisionId":"MY-11","lat":1.55,"lon":110.3333,"population":570407},{"id":"3088171","name":"Poznań","countryIso2":"PL","subdivisionId":"PL-86","lat":52.4069,"lon":16.9299,"population":570352},{"id":"2514256","name":"Málaga","countryIso2":"ES","subdivisionId":"ES-51","lat":36.7202,"lon":-4.4203,"population":568305},{"id":"2290956","name":"Bouaké","countryIso2":"CI","subdivisionId":"CI-90","lat":7.6939,"lon":-5.0303,"population":567481},{"id":"369004","name":"Nyala","countryIso2":"SD","subdivisionId":"SD-49","lat":12.0489,"lon":24.8807,"population":565734},{"id":"343300","name":"Asmara","countryIso2":"ER","subdivisionId":"ER-05","lat":15.3381,"lon":38.9318,"population":563930},{"id":"2322911","name":"Sokoto","countryIso2":"NG","subdivisionId":"NG-51","lat":13.0627,"lon":5.2432,"population":563861},{"id":"3445831","name":"Uberlândia","countryIso2":"BR","subdivisionId":"BR-15","lat":-18.9186,"lon":-48.2772,"population":563536},{"id":"2326016","name":"Onitsha","countryIso2":"NG","subdivisionId":"NG-25","lat":6.1498,"lon":6.7857,"population":561066},{"id":"1863905","name":"Honchō","countryIso2":"JP","subdivisionId":"JP-04","lat":35.7013,"lon":139.9865,"population":560743},{"id":"5454711","name":"Albuquerque","countryIso2":"US","subdivisionId":"US-NM","lat":35.0845,"lon":-106.6511,"population":559121},{"id":"1877449","name":"Hamhŭng","countryIso2":"KP","subdivisionId":"KP-03","lat":39.9183,"lon":127.5364,"population":559056},{"id":"3447399","name":"Sorocaba","countryIso2":"BR","subdivisionId":"BR-27","lat":-23.5017,"lon":-47.4581,"population":558862},{"id":"658225","name":"Helsinki","countryIso2":"FI","subdivisionId":"FI-01","lat":60.1695,"lon":24.9355,"population":558457},{"id":"1252948","name":"Warangal","countryIso2":"IN","subdivisionId":"IN-40","lat":18,"lon":79.5833,"population":557802},{"id":"3536729","name":"Santiago de Cuba","countryIso2":"CU","subdivisionId":"CU-15","lat":20.0208,"lon":-75.8267,"population":555865},{"id":"2034714","name":"Siping","countryIso2":"CN","subdivisionId":"CN-05","lat":43.1614,"lon":124.3779,"population":555609},{"id":"1860827","name":"Kagoshima","countryIso2":"JP","subdivisionId":"JP-18","lat":31.5667,"lon":130.55,"population":555352},{"id":"1625812","name":"Surakarta","countryIso2":"ID","subdivisionId":"ID-07","lat":-7.5561,"lon":110.8317,"population":555308},{"id":"1797873","name":"Huai'an","countryIso2":"CN","subdivisionId":"CN-04","lat":33.5886,"lon":119.0192,"population":555230},{"id":"1276032","name":"Bhavnagar","countryIso2":"IN","subdivisionId":"IN-09","lat":21.7629,"lon":72.1533,"population":554978},{"id":"3430863","name":"Mar del Plata","countryIso2":"AR","subdivisionId":"AR-01","lat":-38.0004,"lon":-57.5562,"population":553935},{"id":"1183880","name":"Bahawalpur","countryIso2":"PK","subdivisionId":"PK-04","lat":29.3978,"lon":71.6752,"population":552607},{"id":"1159301","name":"Zahedan","countryIso2":"IR","subdivisionId":"IR-04","lat":29.4963,"lon":60.8629,"population":551980},{"id":"415189","name":"Aden","countryIso2":"YE","subdivisionId":"YE-02","lat":12.7794,"lon":45.0367,"population":550602},{"id":"1261977","name":"Nanded","countryIso2":"IN","subdivisionId":"IN-16","lat":19.1602,"lon":77.315,"population":550564},{"id":"515003","name":"Orenburg","countryIso2":"RU","subdivisionId":"RU-55","lat":51.7727,"lon":55.0988,"population":550204},{"id":"1846326","name":"Changwon","countryIso2":"KR","subdivisionId":"KR-20","lat":35.2281,"lon":128.6811,"population":550000},{"id":"786714","name":"Pristina","countryIso2":"XK","subdivisionId":"XK-10097360","lat":42.6727,"lon":21.1669,"population":550000},{"id":"2036581","name":"Jiamusi","countryIso2":"CN","subdivisionId":"CN-08","lat":46.7993,"lon":130.3163,"population":549549},{"id":"1730501","name":"Antipolo","countryIso2":"PH","subdivisionId":"PH-40","lat":14.6258,"lon":121.1225,"population":549543},{"id":"1799491","name":"Neijiang","countryIso2":"CN","subdivisionId":"CN-32","lat":29.5835,"lon":105.0622,"population":546854},{"id":"2944388","name":"Bremen","countryIso2":"DE","subdivisionId":"DE-03","lat":53.0758,"lon":8.8072,"population":546501},{"id":"2542715","name":"Meknès","countryIso2":"MA","subdivisionId":"MA-03","lat":33.8935,"lon":-5.5473,"population":545705},{"id":"1670029","name":"Banqiao","countryIso2":"TW","subdivisionId":"TW-03","lat":25.0143,"lon":121.4672,"population":543342},{"id":"1166000","name":"Sargodha","countryIso2":"PK","subdivisionId":"PK-04","lat":32.0859,"lon":72.6742,"population":542603},{"id":"2389853","name":"Bangui","countryIso2":"CF","subdivisionId":"CF-18","lat":4.3612,"lon":18.555,"population":542393},{"id":"593116","name":"Vilnius","countryIso2":"LT","subdivisionId":"LT-65","lat":54.6892,"lon":25.2798,"population":542366},{"id":"1787227","name":"Yangzhou","countryIso2":"CN","subdivisionId":"CN-04","lat":32.3972,"lon":119.4358,"population":539715},{"id":"1496990","name":"Novokuznetsk","countryIso2":"RU","subdivisionId":"RU-29","lat":53.7557,"lon":87.1099,"population":539616},{"id":"212730","name":"Kisangani","countryIso2":"CD","subdivisionId":"CD-30","lat":0.5153,"lon":25.191,"population":539158},{"id":"358619","name":"Port Said","countryIso2":"EG","subdivisionId":"EG-19","lat":31.2653,"lon":32.3019,"population":538378},{"id":"304531","name":"Mersin","countryIso2":"TR","subdivisionId":"TR-32","lat":36.812,"lon":34.6389,"population":537842},{"id":"3515001","name":"Tuxtla","countryIso2":"MX","subdivisionId":"MX-05","lat":16.7597,"lon":-93.1131,"population":537102},{"id":"1258315","name":"Raurkela","countryIso2":"IN","subdivisionId":"IN-21","lat":22.225,"lon":84.8641,"population":536450},{"id":"2319133","name":"Warri","countryIso2":"NG","subdivisionId":"NG-36","lat":5.5174,"lon":5.7501,"population":536023},{"id":"1809412","name":"Guli","countryIso2":"CN","subdivisionId":"CN-02","lat":28.8816,"lon":120.0331,"population":536000},{"id":"2344082","name":"Ebute Ikorodu","countryIso2":"NG","subdivisionId":"NG-05","lat":6.6009,"lon":3.4882,"population":535619},{"id":"1793424","name":"Tanggu","countryIso2":"CN","subdivisionId":"CN-28","lat":39.0211,"lon":117.6469,"population":535298},{"id":"1806299","name":"Jiangmen","countryIso2":"CN","subdivisionId":"CN-30","lat":22.5833,"lon":113.0833,"population":532419},{"id":"3827409","name":"Cuauhtémoc","countryIso2":"MX","subdivisionId":"MX-09","lat":19.4451,"lon":-99.1461,"population":531831},{"id":"5318313","name":"Tucson","countryIso2":"US","subdivisionId":"US-AZ","lat":32.2217,"lon":-110.9265,"population":531641},{"id":"4644585","name":"Nashville","countryIso2":"US","subdivisionId":"US-TN","lat":36.1659,"lon":-86.7844,"population":530852},{"id":"107968","name":"Ta’if","countryIso2":"SA","subdivisionId":"SA-14","lat":21.2703,"lon":40.4158,"population":530848},{"id":"1052373","name":"Beira","countryIso2":"MZ","subdivisionId":"MZ-05","lat":-19.8436,"lon":34.8389,"population":530604},{"id":"1270668","name":"Guntur","countryIso2":"IN","subdivisionId":"IN-02","lat":16.2997,"lon":80.4573,"population":530577},{"id":"2244322","name":"Touba","countryIso2":"SN","subdivisionId":"SN-03","lat":14.85,"lon":-15.8833,"population":529176},{"id":"6325494","name":"Québec","countryIso2":"CA","subdivisionId":"CA-10","lat":46.8123,"lon":-71.2145,"population":528595},{"id":"132144","name":"Hamadān","countryIso2":"IR","subdivisionId":"IR-09","lat":34.7992,"lon":48.5146,"population":528256},{"id":"1816080","name":"Cangzhou","countryIso2":"CN","subdivisionId":"CN-10","lat":38.3167,"lon":116.8667,"population":527681},{"id":"3583361","name":"San Salvador","countryIso2":"SV","subdivisionId":"SV-10","lat":13.6894,"lon":-89.1872,"population":525990},{"id":"1273313","name":"Dehra Dūn","countryIso2":"IN","subdivisionId":"IN-39","lat":30.3244,"lon":78.0339,"population":522081},{"id":"3465038","name":"Cuiabá","countryIso2":"BR","subdivisionId":"BR-14","lat":-15.5961,"lon":-56.0967,"population":521934},{"id":"1735158","name":"Petaling Jaya","countryIso2":"MY","subdivisionId":"MY-12","lat":3.1073,"lon":101.6067,"population":520698},{"id":"1821274","name":"Macau","countryIso2":"MO","subdivisionId":"MO-02","lat":22.2006,"lon":113.5461,"population":520400},{"id":"1276014","name":"Bhayandar","countryIso2":"IN","subdivisionId":"IN-16","lat":19.3016,"lon":72.8511,"population":520301},{"id":"747340","name":"Esenler","countryIso2":"TR","subdivisionId":"TR-34","lat":41.0435,"lon":28.8762,"population":520235},{"id":"500096","name":"Ryazan’","countryIso2":"RU","subdivisionId":"RU-62","lat":54.6269,"lon":39.6916,"population":520173},{"id":"5350937","name":"Fresno","countryIso2":"US","subdivisionId":"US-CA","lat":36.7477,"lon":-119.7724,"population":520052},{"id":"5969782","name":"Hamilton","countryIso2":"CA","subdivisionId":"CA-08","lat":43.2501,"lon":-79.8496,"population":519949},{"id":"1488754","name":"Tyumen","countryIso2":"RU","subdivisionId":"RU-78","lat":57.1522,"lon":65.5272,"population":519119},{"id":"1272175","name":"Durgapur","countryIso2":"IN","subdivisionId":"IN-28","lat":23.5158,"lon":87.308,"population":518872},{"id":"4011743","name":"Victoria de Durango","countryIso2":"MX","subdivisionId":"MX-10","lat":24.0203,"lon":-104.6576,"population":518709},{"id":"1279159","name":"Ajmer","countryIso2":"IN","subdivisionId":"IN-24","lat":26.4521,"lon":74.6387,"population":517911},{"id":"2267057","name":"Lisbon","countryIso2":"PT","subdivisionId":"PT-14","lat":38.7167,"lon":-9.1333,"population":517802},{"id":"1791121","name":"Changde","countryIso2":"CN","subdivisionId":"CN-11","lat":29.0321,"lon":111.6984,"population":517780},{"id":"1805987","name":"Jiaozuo","countryIso2":"CN","subdivisionId":"CN-09","lat":35.2397,"lon":113.2331,"population":517540},{"id":"1253894","name":"Ulhasnagar","countryIso2":"IN","subdivisionId":"IN-16","lat":19.2167,"lon":73.15,"population":516584},{"id":"1266285","name":"Kolhāpur","countryIso2":"IN","subdivisionId":"IN-16","lat":16.6956,"lon":74.2317,"population":516142},{"id":"535121","name":"Lipetsk","countryIso2":"RU","subdivisionId":"RU-43","lat":52.6031,"lon":39.5708,"population":515655},{"id":"1256525","name":"Siliguri","countryIso2":"IN","subdivisionId":"IN-28","lat":26.71,"lon":88.4285,"population":515574},{"id":"2910831","name":"Hannover","countryIso2":"DE","subdivisionId":"DE-06","lat":52.3705,"lon":9.7332,"population":515140},{"id":"315202","name":"Eskişehir","countryIso2":"TR","subdivisionId":"TR-26","lat":39.7767,"lon":30.5206,"population":514869},{"id":"14256","name":"Āzādshahr","countryIso2":"IR","subdivisionId":"IR-09","lat":34.7905,"lon":48.5701,"population":514102},{"id":"3838233","name":"Salta","countryIso2":"AR","subdivisionId":"AR-17","lat":-24.7859,"lon":-65.4117,"population":512686},