{
  "name": "Postcards experiences starter list",
  "version": 0,
  "license": "CC0-1.0",
  "note": "V0 seed; a community-maintained dataset can replace this file later. Same shape, same ids. Each moment lists a few real places where it can be lived (name, coordinates, country) so the map can fly you there. Coordinates are approximate anchors, not precise records.",
  "experiences": [
    { "id": "xp-aurora-borealis", "emoji": "🌌", "name": "See the northern lights", "hint": "Aurora borealis; far northern latitudes in winter", "where": [ { "name": "Tromsø", "lat": 69.65, "lon": 18.96, "cc": "NO" }, { "name": "Fairbanks", "lat": 64.84, "lon": -147.72, "cc": "US" }, { "name": "Reykjavík", "lat": 64.13, "lon": -21.90, "cc": "IS" } ] },
    { "id": "xp-aurora-australis", "emoji": "🌠", "name": "See the southern lights", "hint": "Aurora australis; far southern latitudes", "where": [ { "name": "Ushuaia", "lat": -54.80, "lon": -68.30, "cc": "AR" }, { "name": "Queenstown", "lat": -45.03, "lon": 168.66, "cc": "NZ" }, { "name": "Hobart", "lat": -42.88, "lon": 147.33, "cc": "AU" } ] },
    { "id": "xp-midnight-sun", "emoji": "🌞", "name": "Experience the midnight sun", "hint": "Sun above the horizon at midnight; polar summer", "where": [ { "name": "Nordkapp", "lat": 71.17, "lon": 25.78, "cc": "NO" }, { "name": "Nuuk", "lat": 64.18, "lon": -51.69, "cc": "GL" } ] },
    { "id": "xp-polar-night", "emoji": "🌑", "name": "Live a polar night", "hint": "A day the sun never rises; polar winter", "where": [ { "name": "Longyearbyen", "lat": 78.22, "lon": 15.65, "cc": "SJ" } ] },
    { "id": "xp-santa-rovaniemi", "emoji": "🎅", "name": "Meet Santa Claus in Lapland", "hint": "Rovaniemi, Finland; the Santa Claus Village", "where": [ { "name": "Rovaniemi", "lat": 66.50, "lon": 25.73, "cc": "FI" } ] },
    { "id": "xp-total-solar-eclipse", "emoji": "🌘", "name": "Stand in a total solar eclipse", "hint": "Inside the path of totality; the path moves each time" },
    { "id": "xp-cross-equator", "emoji": "🌍", "name": "Cross the equator", "hint": "By land, sea or air", "where": [ { "name": "Mitad del Mundo", "lat": -0.00, "lon": -78.46, "cc": "EC" }, { "name": "Nanyuki", "lat": 0.01, "lon": 37.07, "cc": "KE" }, { "name": "Pontianak", "lat": -0.02, "lon": 109.34, "cc": "ID" } ] },
    { "id": "xp-cross-date-line", "emoji": "🕐", "name": "Cross the international date line", "hint": "Lose or gain a whole day", "where": [ { "name": "Taveuni", "lat": -16.85, "lon": 179.97, "cc": "FJ" } ] },
    { "id": "xp-arctic-circle", "emoji": "🧭", "name": "Cross the Arctic Circle", "hint": "66°33′ north", "where": [ { "name": "Rovaniemi", "lat": 66.55, "lon": 25.83, "cc": "FI" }, { "name": "Saltfjellet", "lat": 66.57, "lon": 15.36, "cc": "NO" } ] },
    { "id": "xp-antarctica", "emoji": "🐧", "name": "Set foot on Antarctica", "hint": "The seventh continent", "where": [ { "name": "Antarctic Peninsula", "lat": -63.50, "lon": -57.00, "cc": "AQ" } ] },
    { "id": "xp-safari", "emoji": "🦁", "name": "Go on a wildlife safari", "hint": "See big wildlife in its own habitat", "where": [ { "name": "Serengeti", "lat": -2.33, "lon": 34.83, "cc": "TZ" }, { "name": "Maasai Mara", "lat": -1.50, "lon": 35.10, "cc": "KE" }, { "name": "Kruger", "lat": -24.00, "lon": 31.50, "cc": "ZA" } ] },
    { "id": "xp-great-migration", "emoji": "🦓", "name": "Witness the great migration", "hint": "Wildebeest and zebra crossing the Mara River", "where": [ { "name": "Serengeti", "lat": -2.15, "lon": 34.69, "cc": "TZ" }, { "name": "Maasai Mara", "lat": -1.41, "lon": 35.00, "cc": "KE" } ] },
    { "id": "xp-mountain-gorillas", "emoji": "🦍", "name": "Trek to mountain gorillas", "hint": "Bwindi or the Virunga volcanoes", "where": [ { "name": "Bwindi", "lat": -1.06, "lon": 29.68, "cc": "UG" }, { "name": "Volcanoes NP", "lat": -1.48, "lon": 29.49, "cc": "RW" } ] },
    { "id": "xp-polar-bears", "emoji": "🐻‍❄️", "name": "See wild polar bears", "hint": "Churchill, on the shore of Hudson Bay", "where": [ { "name": "Churchill", "lat": 58.77, "lon": -94.17, "cc": "CA" } ] },
    { "id": "xp-whale-sharks", "emoji": "🦈", "name": "Swim with whale sharks", "hint": "The gentle giants of warm seas", "where": [ { "name": "Oslob", "lat": 9.46, "lon": 123.38, "cc": "PH" }, { "name": "Ningaloo", "lat": -22.70, "lon": 113.70, "cc": "AU" }, { "name": "La Paz", "lat": 24.16, "lon": -110.31, "cc": "MX" } ] },
    { "id": "xp-coral-reef", "emoji": "🐠", "name": "Snorkel or dive a coral reef", "hint": "A living reef, mask on", "where": [ { "name": "Great Barrier Reef", "lat": -18.28, "lon": 147.70, "cc": "AU" }, { "name": "Raja Ampat", "lat": -0.23, "lon": 130.52, "cc": "ID" }, { "name": "Red Sea (Sharm)", "lat": 27.91, "lon": 34.33, "cc": "EG" } ] },
    { "id": "xp-whales", "emoji": "🐋", "name": "Watch whales at sea", "hint": "From a boat or the shore", "where": [ { "name": "Húsavík", "lat": 66.04, "lon": -17.34, "cc": "IS" }, { "name": "Kaikōura", "lat": -42.40, "lon": 173.68, "cc": "NZ" }, { "name": "Monterey", "lat": 36.60, "lon": -121.90, "cc": "US" } ] },
    { "id": "xp-sea-turtles", "emoji": "🐢", "name": "See sea turtles nest", "hint": "A beach hatching under moonlight", "where": [ { "name": "Tortuguero", "lat": 10.54, "lon": -83.50, "cc": "CR" }, { "name": "Ras Al Jinz", "lat": 22.42, "lon": 59.83, "cc": "OM" } ] },
    { "id": "xp-wild-elephants", "emoji": "🐘", "name": "See wild elephants", "hint": "A herd in the open", "where": [ { "name": "Udawalawe", "lat": 6.44, "lon": 80.89, "cc": "LK" }, { "name": "Chobe", "lat": -18.62, "lon": 24.72, "cc": "BW" } ] },
    { "id": "xp-hot-air-balloon", "emoji": "🎈", "name": "Fly in a hot air balloon", "hint": "Cappadocia, Bagan, or anywhere aloft", "where": [ { "name": "Cappadocia", "lat": 38.64, "lon": 34.83, "cc": "TR" }, { "name": "Bagan", "lat": 21.17, "lon": 94.86, "cc": "MM" } ] },
    { "id": "xp-active-volcano", "emoji": "🌋", "name": "Look into an active volcano", "hint": "A glowing crater or fresh lava field", "where": [ { "name": "Kīlauea", "lat": 19.42, "lon": -155.29, "cc": "US" }, { "name": "Stromboli", "lat": 38.79, "lon": 15.21, "cc": "IT" }, { "name": "Mount Bromo", "lat": -7.94, "lon": 112.95, "cc": "ID" } ] },
    { "id": "xp-geyser", "emoji": "⛲", "name": "Watch a geyser erupt", "hint": "Iceland, Yellowstone, El Tatio", "where": [ { "name": "Geysir", "lat": 64.31, "lon": -20.30, "cc": "IS" }, { "name": "Yellowstone", "lat": 44.46, "lon": -110.83, "cc": "US" }, { "name": "El Tatio", "lat": -22.33, "lon": -68.01, "cc": "CL" } ] },
    { "id": "xp-hot-spring", "emoji": "♨️", "name": "Bathe in a natural hot spring", "hint": "Onsen, blue lagoon, wild pool", "where": [ { "name": "Blue Lagoon", "lat": 63.88, "lon": -22.45, "cc": "IS" }, { "name": "Hakone", "lat": 35.23, "lon": 139.02, "cc": "JP" }, { "name": "Pamukkale", "lat": 37.92, "lon": 29.12, "cc": "TR" } ] },
    { "id": "xp-desert-night", "emoji": "🏜️", "name": "Sleep a night in the desert", "hint": "Dunes and a sky full of stars", "where": [ { "name": "Merzouga", "lat": 31.10, "lon": -4.01, "cc": "MA" }, { "name": "Wadi Rum", "lat": 29.53, "lon": 35.42, "cc": "JO" }, { "name": "Atacama", "lat": -24.50, "lon": -69.25, "cc": "CL" } ] },
    { "id": "xp-milky-way", "emoji": "✨", "name": "See the Milky Way with bare eyes", "hint": "A true dark-sky place", "where": [ { "name": "Atacama", "lat": -24.50, "lon": -69.25, "cc": "CL" }, { "name": "Aoraki Dark Sky", "lat": -43.73, "lon": 170.10, "cc": "NZ" }, { "name": "NamibRand", "lat": -25.00, "lon": 16.00, "cc": "NA" } ] },
    { "id": "xp-high-peak", "emoji": "🏔️", "name": "Stand above 4,000 m", "hint": "A high summit or pass, on your own feet or not", "where": [ { "name": "Everest Base Camp", "lat": 28.00, "lon": 86.85, "cc": "NP" }, { "name": "Kilimanjaro", "lat": -3.07, "lon": 37.35, "cc": "TZ" }, { "name": "Mont Blanc", "lat": 45.83, "lon": 6.86, "cc": "FR" } ] },
    { "id": "xp-glacier", "emoji": "🧊", "name": "Walk on a glacier", "hint": "Crampons on ancient ice", "where": [ { "name": "Vatnajökull", "lat": 64.41, "lon": -16.83, "cc": "IS" }, { "name": "Perito Moreno", "lat": -50.47, "lon": -73.05, "cc": "AR" }, { "name": "Franz Josef", "lat": -43.47, "lon": 170.18, "cc": "NZ" } ] },
    { "id": "xp-fjord", "emoji": "⛰️", "name": "Cruise a great fjord", "hint": "Cliffs falling straight into deep water", "where": [ { "name": "Geirangerfjord", "lat": 62.10, "lon": 7.01, "cc": "NO" }, { "name": "Milford Sound", "lat": -44.67, "lon": 167.93, "cc": "NZ" } ] },
    { "id": "xp-salt-flat", "emoji": "🪞", "name": "Walk the world's largest salt flat", "hint": "A mirror to the sky after rain", "where": [ { "name": "Salar de Uyuni", "lat": -20.13, "lon": -67.49, "cc": "BO" } ] },
    { "id": "xp-giant-dunes", "emoji": "🐪", "name": "Climb a giant sand dune", "hint": "Some of the tallest dunes on earth", "where": [ { "name": "Sossusvlei", "lat": -24.73, "lon": 15.29, "cc": "NA" }, { "name": "Merzouga", "lat": 31.10, "lon": -4.01, "cc": "MA" } ] },
    { "id": "xp-great-waterfall", "emoji": "💦", "name": "Stand before a giant waterfall", "hint": "Iguazú, Victoria Falls, Niagara", "where": [ { "name": "Iguazú Falls", "lat": -25.69, "lon": -54.44, "cc": "AR" }, { "name": "Victoria Falls", "lat": -17.92, "lon": 25.86, "cc": "ZM" }, { "name": "Niagara Falls", "lat": 43.08, "lon": -79.07, "cc": "CA" } ] },
    { "id": "xp-grand-canyon", "emoji": "🏞️", "name": "Peer over a vast canyon", "hint": "A mile deep, cut by a river", "where": [ { "name": "Grand Canyon", "lat": 36.06, "lon": -112.14, "cc": "US" }, { "name": "Fish River Canyon", "lat": -27.60, "lon": 17.62, "cc": "NA" } ] },
    { "id": "xp-glowworm-cave", "emoji": "🕳️", "name": "Explore a cave of wonders", "hint": "Glowworms overhead, or the world's biggest cave", "where": [ { "name": "Waitomo", "lat": -38.26, "lon": 175.10, "cc": "NZ" }, { "name": "Sơn Đoòng", "lat": 17.45, "lon": 106.29, "cc": "VN" } ] },
    { "id": "xp-rainforest", "emoji": "🌴", "name": "Walk deep into rainforest", "hint": "The canopy loud with life", "where": [ { "name": "Amazon (Manaus)", "lat": -3.12, "lon": -60.02, "cc": "BR" }, { "name": "Borneo (Danum)", "lat": 4.97, "lon": 117.80, "cc": "MY" } ] },
    { "id": "xp-bioluminescence", "emoji": "🌊", "name": "Swim in bioluminescent water", "hint": "A glowing night sea", "where": [ { "name": "Mosquito Bay", "lat": 18.10, "lon": -65.44, "cc": "PR" }, { "name": "Vaadhoo", "lat": 3.20, "lon": 72.94, "cc": "MV" } ] },
    { "id": "xp-sail-open-sea", "emoji": "⛵", "name": "Sail out of sight of land", "hint": "Open water in every direction", "where": [ { "name": "Cape Horn", "lat": -55.98, "lon": -67.27, "cc": "CL" } ] },
    { "id": "xp-legendary-train", "emoji": "🚂", "name": "Ride a legendary long-distance train", "hint": "Trans-Siberian, the Ghan, a night train across a continent", "where": [ { "name": "Trans-Siberian (Moscow)", "lat": 55.76, "lon": 37.62, "cc": "RU" }, { "name": "The Ghan (Darwin)", "lat": -12.46, "lon": 130.84, "cc": "AU" } ] },
    { "id": "xp-night-train", "emoji": "🛌", "name": "Cross a border on a night train", "hint": "Fall asleep in one country, wake in another", "where": [ { "name": "Vienna", "lat": 48.19, "lon": 16.36, "cc": "AT" } ] },
    { "id": "xp-iconic-road-trip", "emoji": "🚗", "name": "Drive an iconic road", "hint": "Route 66, the Great Ocean Road, a coast highway", "where": [ { "name": "Route 66 (Flagstaff)", "lat": 35.20, "lon": -111.65, "cc": "US" }, { "name": "Great Ocean Road", "lat": -38.68, "lon": 143.10, "cc": "AU" } ] },
    { "id": "xp-gondola-venice", "emoji": "🚣", "name": "Glide a canal city by boat", "hint": "Venice by gondola, or the backwaters of Kerala", "where": [ { "name": "Venice", "lat": 45.44, "lon": 12.34, "cc": "IT" }, { "name": "Kerala backwaters", "lat": 9.50, "lon": 76.38, "cc": "IN" } ] },
    { "id": "xp-ski-snowboard", "emoji": "🎿", "name": "Ski or snowboard great powder", "hint": "The Alps or deep Japanese snow", "where": [ { "name": "Chamonix", "lat": 45.92, "lon": 6.87, "cc": "FR" }, { "name": "Niseko", "lat": 42.80, "lon": 140.69, "cc": "JP" } ] },
    { "id": "xp-dog-sled", "emoji": "🛷", "name": "Ride a dog sled", "hint": "A husky team across the snow", "where": [ { "name": "Tromsø", "lat": 69.65, "lon": 18.96, "cc": "NO" }, { "name": "Rovaniemi", "lat": 66.50, "lon": 25.73, "cc": "FI" } ] },
    { "id": "xp-ice-hotel", "emoji": "🏨", "name": "Sleep in an ice hotel", "hint": "A room carved from snow and ice", "where": [ { "name": "Jukkasjärvi", "lat": 67.85, "lon": 20.60, "cc": "SE" } ] },
    { "id": "xp-bungee", "emoji": "🪢", "name": "Take a leap: bungee or zipline", "hint": "Where the sport was born, or anywhere brave", "where": [ { "name": "Queenstown", "lat": -45.03, "lon": 168.66, "cc": "NZ" }, { "name": "Victoria Falls Bridge", "lat": -17.92, "lon": 25.85, "cc": "ZW" } ] },
    { "id": "xp-via-ferrata", "emoji": "🧗", "name": "Climb a via ferrata", "hint": "Cabled routes up sheer rock", "where": [ { "name": "Dolomites", "lat": 46.41, "lon": 11.84, "cc": "IT" } ] },
    { "id": "xp-rocket-launch", "emoji": "🚀", "name": "Watch a rocket launch", "hint": "A spaceport, live", "where": [ { "name": "Kennedy Space Center", "lat": 28.57, "lon": -80.65, "cc": "US" }, { "name": "Guiana Space Centre", "lat": 5.24, "lon": -52.77, "cc": "GF" } ] },
    { "id": "xp-pyramids-giza", "emoji": "🔺", "name": "Stand before the Pyramids", "hint": "Giza, the last ancient wonder", "where": [ { "name": "Giza", "lat": 29.98, "lon": 31.13, "cc": "EG" } ] },
    { "id": "xp-great-wall", "emoji": "🧱", "name": "Walk the Great Wall of China", "hint": "Ramparts over the ridgelines", "where": [ { "name": "Mutianyu", "lat": 40.43, "lon": 116.57, "cc": "CN" }, { "name": "Badaling", "lat": 40.36, "lon": 116.02, "cc": "CN" } ] },
    { "id": "xp-machu-picchu", "emoji": "🏯", "name": "Reach Machu Picchu", "hint": "The Inca city in the clouds", "where": [ { "name": "Machu Picchu", "lat": -13.16, "lon": -72.55, "cc": "PE" } ] },
    { "id": "xp-taj-mahal", "emoji": "🕌", "name": "See the Taj Mahal at dawn", "hint": "Marble turning gold at sunrise", "where": [ { "name": "Agra", "lat": 27.17, "lon": 78.04, "cc": "IN" } ] },
    { "id": "xp-petra", "emoji": "🏜️", "name": "Walk into Petra", "hint": "The Treasury at the end of the Siq", "where": [ { "name": "Petra", "lat": 30.33, "lon": 35.44, "cc": "JO" } ] },
    { "id": "xp-colosseum", "emoji": "🏛️", "name": "Stand in the Colosseum", "hint": "Two thousand years of Rome", "where": [ { "name": "Rome", "lat": 41.89, "lon": 12.49, "cc": "IT" } ] },
    { "id": "xp-angkor-wat", "emoji": "🛕", "name": "See Angkor Wat at sunrise", "hint": "Temple towers over the jungle", "where": [ { "name": "Siem Reap", "lat": 13.41, "lon": 103.87, "cc": "KH" } ] },
    { "id": "xp-christ-redeemer", "emoji": "⛰️", "name": "Look out from Christ the Redeemer", "hint": "Rio spread out far below", "where": [ { "name": "Rio de Janeiro", "lat": -22.95, "lon": -43.21, "cc": "BR" } ] },
    { "id": "xp-chichen-itza", "emoji": "🐍", "name": "Climb the steps of a Maya city", "hint": "Chichén Itzá, Tikal, Palenque", "where": [ { "name": "Chichén Itzá", "lat": 20.68, "lon": -88.57, "cc": "MX" }, { "name": "Tikal", "lat": 17.22, "lon": -89.62, "cc": "GT" } ] },
    { "id": "xp-eiffel-tower", "emoji": "🗼", "name": "Go up the Eiffel Tower", "hint": "Paris from the top", "where": [ { "name": "Paris", "lat": 48.86, "lon": 2.29, "cc": "FR" } ] },
    { "id": "xp-statue-liberty", "emoji": "🗽", "name": "Meet the Statue of Liberty", "hint": "New York harbour", "where": [ { "name": "New York", "lat": 40.69, "lon": -74.04, "cc": "US" } ] },
    { "id": "xp-sagrada-familia", "emoji": "⛪", "name": "Step inside the Sagrada Família", "hint": "Gaudí's forest of light", "where": [ { "name": "Barcelona", "lat": 41.40, "lon": 2.17, "cc": "ES" } ] },
    { "id": "xp-northern-lights-igloo", "emoji": "🛖", "name": "Sleep in a glass igloo", "hint": "The sky as your ceiling", "where": [ { "name": "Saariselkä", "lat": 68.42, "lon": 27.41, "cc": "FI" } ] },
    { "id": "xp-cherry-blossom", "emoji": "🌸", "name": "Catch cherry blossom season", "hint": "Hanami in Japan, or any full bloom", "where": [ { "name": "Kyoto", "lat": 35.01, "lon": 135.77, "cc": "JP" }, { "name": "Washington, D.C.", "lat": 38.88, "lon": -77.04, "cc": "US" } ] },
    { "id": "xp-fall-foliage", "emoji": "🍁", "name": "Chase autumn colour", "hint": "Whole forests turning red and gold", "where": [ { "name": "New England", "lat": 44.00, "lon": -71.50, "cc": "US" }, { "name": "Kyoto", "lat": 35.01, "lon": 135.77, "cc": "JP" } ] },
    { "id": "xp-tulip-fields", "emoji": "🌷", "name": "Walk through blooming flower fields", "hint": "Tulips or endless lavender rows", "where": [ { "name": "Keukenhof", "lat": 52.27, "lon": 4.55, "cc": "NL" }, { "name": "Valensole", "lat": 43.84, "lon": 5.98, "cc": "FR" } ] },
    { "id": "xp-vineyard-harvest", "emoji": "🍇", "name": "Join a grape harvest", "hint": "Wine country in autumn", "where": [ { "name": "Bordeaux", "lat": 44.84, "lon": -0.58, "cc": "FR" }, { "name": "Tuscany", "lat": 43.47, "lon": 11.14, "cc": "IT" }, { "name": "Mendoza", "lat": -32.89, "lon": -68.85, "cc": "AR" } ] },
    { "id": "xp-street-food-market", "emoji": "🍜", "name": "Feast at a night market", "hint": "A whole street of food after dark", "where": [ { "name": "Bangkok", "lat": 13.75, "lon": 100.49, "cc": "TH" }, { "name": "Marrakech", "lat": 31.63, "lon": -7.99, "cc": "MA" }, { "name": "Taipei", "lat": 25.04, "lon": 121.50, "cc": "TW" } ] },
    { "id": "xp-carnival", "emoji": "🎭", "name": "Join a world-famous carnival", "hint": "Rio, Venice, Notting Hill", "where": [ { "name": "Rio de Janeiro", "lat": -22.91, "lon": -43.18, "cc": "BR" }, { "name": "Venice", "lat": 45.43, "lon": 12.34, "cc": "IT" }, { "name": "Notting Hill", "lat": 51.52, "lon": -0.20, "cc": "GB" } ] },
    { "id": "xp-oktoberfest", "emoji": "🍺", "name": "Raise a stein at Oktoberfest", "hint": "Munich in autumn", "where": [ { "name": "Munich", "lat": 48.13, "lon": 11.55, "cc": "DE" } ] },
    { "id": "xp-la-tomatina", "emoji": "🍅", "name": "Throw tomatoes at La Tomatina", "hint": "A town square turned red", "where": [ { "name": "Buñol", "lat": 39.42, "lon": -0.79, "cc": "ES" } ] },
    { "id": "xp-holi", "emoji": "🎨", "name": "Play Holi, the festival of colours", "hint": "Clouds of colour in the streets", "where": [ { "name": "Mathura", "lat": 27.49, "lon": 77.67, "cc": "IN" } ] },
    { "id": "xp-dia-de-muertos", "emoji": "💀", "name": "See Día de Muertos", "hint": "Marigolds, altars and remembrance", "where": [ { "name": "Oaxaca", "lat": 17.06, "lon": -96.72, "cc": "MX" } ] },
    { "id": "xp-songkran", "emoji": "💧", "name": "Join a water festival", "hint": "Songkran, the world's biggest water fight", "where": [ { "name": "Chiang Mai", "lat": 18.79, "lon": 98.98, "cc": "TH" } ] },
    { "id": "xp-lantern-festival", "emoji": "🏮", "name": "Release a sky lantern", "hint": "A night sky full of light", "where": [ { "name": "Chiang Mai (Yi Peng)", "lat": 18.79, "lon": 98.98, "cc": "TH" }, { "name": "Pingxi", "lat": 25.02, "lon": 121.74, "cc": "TW" } ] },
    { "id": "xp-running-of-bulls", "emoji": "🐂", "name": "See the running of the bulls", "hint": "San Fermín in Pamplona", "where": [ { "name": "Pamplona", "lat": 42.82, "lon": -1.64, "cc": "ES" } ] },
    { "id": "xp-new-year-abroad", "emoji": "🎆", "name": "Celebrate New Year in another country", "hint": "Fireworks far from home", "where": [ { "name": "Sydney", "lat": -33.86, "lon": 151.21, "cc": "AU" }, { "name": "Edinburgh", "lat": 55.95, "lon": -3.19, "cc": "GB" } ] },
    { "id": "xp-pilgrimage-walk", "emoji": "🥾", "name": "Walk a great pilgrimage route", "hint": "The Camino de Santiago, or the Kumano Kodō", "where": [ { "name": "Santiago de Compostela", "lat": 42.88, "lon": -8.54, "cc": "ES" }, { "name": "Kumano Kodō", "lat": 33.84, "lon": 135.77, "cc": "JP" } ] },
    { "id": "xp-grand-opera", "emoji": "🎼", "name": "See a show at a grand opera house", "hint": "Under a famous roof", "where": [ { "name": "Sydney Opera House", "lat": -33.857, "lon": 151.215, "cc": "AU" }, { "name": "La Scala", "lat": 45.47, "lon": 9.19, "cc": "IT" } ] }
  ]
}
